city,state,shape,city_latitude,city_longitude,duration_sec,year,month,day
Chester,VA,light,37.343151515151526,-77.408581818182,5.0,2019,12,Night
Charleston,SC,unknown,32.8038872316379,-79.96885661016988,,2005,12,Night
Cumming,GA,light,34.17941111111121,-84.14029453860653,35.0,2012,12,Night
Mulberry,FL,cylinder,27.80200000000001,-81.98990000000002,,2018,12,Night
Port Orange,FL,sphere,29.11762222222222,-81.00494074074058,420.0,2017,12,Night
Tampa,FL,circle,28.00681435810791,-82.47646101351302,60.0,2019,12,Night
Comanche,TX,formation,31.88920000000001,-98.6385,,2019,12,Night
Dalton,GA,triangle,34.78065060240965,-84.93673734939762,150.0,2019,12,Night
Winston-Salem,NC,circle,36.09356861702117,-80.27833537234031,,2019,12,Night
Hammond,LA,disk,30.48724523809518,-90.4769291666664,600.0,2019,12,Night
Chattaroy,WV,formation,,,1200.0,2019,12,Day
Kingwood,TX,disk,30.0336,-95.261,300.0,2019,12,Day
Point Harbor,NC,cigar,36.0871,-75.8041,180.0,2019,12,Night
Hartselle,AL,light,34.443600000000046,-86.93690000000001,,2019,12,Night
Savannah,GA,cigar,32.02970094086019,-81.13525336021517,180.0,2019,12,Night
Dunnellon,FL,fireball,29.086815384615385,-82.4251435897436,600.0,2019,12,Night
Winston Salem,NC,diamond,,,,2019,12,Night
Bethlehem,GA,fireball,33.9297,-83.74470000000004,,2019,12,Night
Greensboro,NC,oval,36.076963026165934,-79.8158138794089,180.0,2019,12,Night
Evans Georgia,GA,cigar,,,180.0,2019,12,Night
New Port Richey,FL,light,28.24270049382709,-82.67723901234524,,2019,12,Night
Valdosta,GA,light,30.85822314814813,-83.30521064814809,,2019,12,Night
Greenville,SC,other,34.83721312741325,-82.33834929214929,120.0,2019,12,Day
Ponte Vedra Beach,FL,light,30.10861724137932,-81.35468965517224,300.0,2019,12,Day
Thomson,GA,triangle,33.49659999999997,-82.52860000000005,1800.0,2019,12,Night
Port Orange,FL,light,29.11762222222222,-81.00494074074058,,2019,12,Night
Dayton,TX,circle,30.045399999999976,-94.90580000000016,60.0,2019,12,Night
Nicholasville,KY,triangle,37.86494843750006,-84.56433750000006,300.0,2019,12,Day
Greenville,SC,circle,34.83721312741325,-82.33834929214929,900.0,2019,12,Day
,VA,light,,,390.0,2019,12,Night
Greenville,SC,sphere,34.83721312741325,-82.33834929214929,330.0,2019,12,Night
Carthage,NC,fireball,35.359300000000005,-79.4354,300.0,2019,12,Night
Mayflower,AR,sphere,34.9741,-92.4312,,2019,12,Night
Olive Branch,MS,disk,34.917999999999935,-89.82159999999979,,2003,12,Day
Fort Pierce,FL,triangle,,,,2004,12,Night
Rio Hondo,TX,circle,26.2615,-97.4872,,2004,12,Night
Sebring,FL,light,27.48583177570095,-81.46044672897182,60.0,2005,12,Night
Jefferson,GA,egg,34.09639999999995,-83.57399999999988,90.0,2005,12,Night
Tallahassee,FL,cigar,30.474393346379586,-84.25529034572872,600.0,2005,12,Night
Palatka,FL,oval,29.68212692307694,-81.68864230769226,10.0,2007,12,Night
Boynton Beach,FL,rectangle,26.524479610194827,-80.10637856072006,180.0,2007,12,Night
Warner Robins,GA,cigar,32.59603047619048,-83.63209333333337,420.0,2006,12,Day
Northeastern,TX,cone,,,,2006,12,Night
Columbus,GA,formation,32.50270233236155,-84.93712623906727,10.0,2007,12,Day
Columbus,GA,formation,32.50270233236155,-84.93712623906727,10.0,2007,12,Day
Austin,TX,triangle,30.308469443732346,-97.76011171494544,300.0,2005,12,Night
Lakeland,FL,circle,28.04722715328456,-81.95884978102269,,2007,12,Day
Alpharetta,GA,circle,34.08218459958972,-84.26424661190921,30.0,2007,12,Night
Corpus Christi,TX,light,27.71750016181213,-97.40525129449864,60.0,2007,12,Night
Metalton,AR,oval,,,,2007,12,Day
Metalton,AR,oval,,,60.0,2007,12,Day
Port Saint Lucie,FL,unknown,27.28568630136981,-80.36344363992168,2700.0,2007,12,Night
Jacksonville,FL,disk,30.266904680970416,-81.61637283365769,,2007,12,Night
Monroe,NC,other,35.060538853503154,-80.53092292993611,,2007,12,Night
San Antonio,TX,unknown,29.48886591714061,-98.47524044355946,3600.0,2007,12,Night
Tyler,TX,unknown,32.292818970189614,-95.29241327913266,600.0,2007,12,Day
Sylva,NC,triangle,35.36189999999999,-83.20780000000008,10.0,2007,12,Night
Longwood,FL,disk,28.71875294117648,-81.37619869281045,,2007,12,Night
Valley View,TX,diamond,33.486,-97.2053,60.0,2007,12,Night
Jacksonville,FL,teardrop,30.266904680970416,-81.61637283365769,,2007,12,Night
Robinson,TX,light,,,3600.0,2007,12,Night
Johnson City,TN,triangle,36.3237533442089,-82.35638939641112,240.0,2007,12,Night
Covington,GA,light,33.53250995475101,-83.90798959276009,1200.0,2007,12,Night
Columbus,GA,cigar,32.50270233236155,-84.93712623906727,150.0,2007,12,Night
Dallas,TX,light,32.835168077433146,-96.80811785917246,20.0,2007,12,Night
Gardendale,AL,other,33.70610000000004,-86.82380000000009,7200.0,2007,12,Night
Tallahassee,FL,light,30.474393346379586,-84.25529034572872,2700.0,2007,12,Night
Dothan,AL,light,31.20767767441865,-85.42901023255828,60.0,2007,12,Night
Smyrna,GA,other,33.86214054054068,-84.50484729729759,1200.0,2007,12,Night
Richmond,VA,other,37.55860753863546,-77.50798002261593,1200.0,2007,12,Night
Pittsboro,NC,cone,35.751899999999985,-79.22479999999997,2700.0,2007,12,Night
Fort Pierce,FL,cigar,,,2700.0,2007,12,Night
Virginia Beach,VA,fireball,36.83730134271098,-76.06194814577877,300.0,2007,12,Night
Lake Worth,FL,other,26.60020571428564,-80.12513920634922,300.0,2007,12,Night
Hixson,TN,other,35.17050000000008,-85.20950000000022,300.0,2007,12,Night
High Point,NC,other,35.974904029304035,-80.0163692307691,1500.0,2007,12,Night
Fort White,FL,cone,29.93970000000001,-82.70049999999998,1200.0,2007,12,Night
Lula,GA,unknown,34.4108,-83.64160000000001,900.0,2007,12,Night
Miami,FL,light,25.77414271350745,-80.28951850011364,2700.0,2007,12,Night
Carnesville,GA,light,34.35270000000001,-83.2983,3600.0,2007,12,Night
Miami,FL,cylinder,25.77414271350745,-80.28951850011364,2700.0,2007,12,Night
Tampa,FL,cylinder,28.00681435810791,-82.47646101351302,900.0,2007,12,Night
Tampa,FL,rectangle,28.00681435810791,-82.47646101351302,,2006,12,Night
Zephyrhills,FL,triangle,28.23611597444085,-82.27626613418565,,2006,12,Night
Tallahassee,FL,triangle,30.474393346379586,-84.25529034572872,150.0,2007,12,Night
Madison,AL,circle,34.71265882352931,-86.75229705882326,540.0,2007,12,Night
Madison,AL,disk,34.71265882352931,-86.75229705882326,300.0,2007,12,Night
Bell Buckle,TN,light,35.6269,-86.3958,,2007,12,Night
Cameron,WV,triangle,39.8433,-80.5571,300.0,2007,12,Night
Conway,SC,oval,33.89340405405407,-78.96144391891886,900.0,2007,12,Day
Griffithsville,WV,cylinder,38.2448,-82.0012,45.0,2006,12,Night
Monticello,KY,sphere,36.7921,-84.81030000000004,,2006,12,Night
Tallahassee,FL,triangle,30.474393346379586,-84.25529034572872,,2006,12,Day
Greensboro,NC,light,36.076963026165934,-79.8158138794089,60.0,2006,12,Night
Charlotte,NC,changing,35.205800840014845,-80.82639156166395,600.0,2007,12,Day
Marked Tree,AR,chevron,35.547,-90.44509999999998,30.0,2006,12,Night
Birmingham,AL,cylinder,33.48091579651916,-86.77946934404252,20.0,2007,12,Night
Mills River,NC,sphere,35.388400000000004,-82.56680000000003,37.5,2006,12,Night
Raleigh,NC,light,35.81800885085544,-78.64441853300764,180.0,2007,12,Night
Summerville,SC,light,33.031396402877775,-80.1881230215825,2.0,2007,12,Night
Delray Beach,FL,circle,26.45554743083016,-80.11589308300414,5.0,2007,12,Night
Destin,FL,triangle,30.39798354430373,-86.45729999999989,180.0,2007,12,Night
Chattanooga,TN,diamond,35.055137114427815,-85.27057024875567,600.0,2007,12,Night
Florence,SC,light,34.174190816326494,-79.73023826530604,45.0,2006,12,Night
Walls,MS,unknown,34.956900000000005,-90.1228,17.5,2006,12,Night
Dunn,NC,triangle,35.27674117647058,-78.54771323529417,600.0,2006,12,Night
Kingsland,GA,triangle,30.79850000000003,-81.72069999999995,900.0,2007,12,Night
Cary,NC,sphere,35.783761979166584,-78.80133489583346,12.5,2007,12,Night
Clifton Forge,VA,chevron,37.81939999999999,-79.73980000000003,300.0,2007,12,Night
Sterling,VA,unknown,39.012762935323465,-77.42228358209002,180.0,2007,12,Night
Snellville,GA,unknown,33.830933333333434,-84.02016666666687,10.0,2006,12,Day
Flovilla,GA,light,33.2344,-83.888,,2006,12,Night
Moss Bluff,LA,light,,,,2006,12,Night
Lake Wales,FL,sphere,27.87365806451616,-81.51855806451611,5.0,2007,12,Night
Independence,KY,light,38.92239999999995,-84.54709999999983,,2007,12,Night
Havana,FL,triangle,30.594600000000007,-84.39899999999996,900.0,2007,12,Night
Carrollton,KY,light,38.6606,-85.18949999999998,240.0,2007,12,Night
Lehigh Acres,FL,other,26.620117460317413,-81.64091587301577,10.0,2007,12,Night
Boca Raton,FL,light,26.368061827957263,-80.13787724014395,180.0,2006,12,Night
Fairfax County,VA,circle,,,600.0,2006,12,Night
El Paso,TX,fireball,31.79232818352071,-106.3748488764045,1800.0,2007,12,Night
St. Petersburg,FL,triangle,27.79451493256266,-82.67515963391195,5400.0,2007,12,Night
Portland,TX,light,27.89229999999998,-97.3186999999999,,2007,12,Night
Stafford,VA,unknown,38.44397520661165,-77.42208057851226,60.0,2006,12,Night
Elizabethtown,KY,light,37.71496718749989,-85.85654062499991,3.0,2006,12,Day
New Castle,VA,changing,37.5053,-80.2223,,2006,12,Day
Seminole,FL,fireball,27.84632195121951,-82.78800243902425,,2007,12,Night
Boca Raton,FL,triangle,26.368061827957263,-80.13787724014395,240.0,2005,12,Night
West Palm Beach,FL,unknown,26.70504529494388,-80.13514009831465,600.0,2007,12,Night
Houston,TX,flash,29.777493696652662,-95.4512204483613,,2007,12,Night
Altamonte Springs,FL,disk,28.66467850162859,-81.40282866449502,30.0,2006,12,Day
Knoxville,TN,unknown,35.96156134085192,-83.98011528822053,180.0,2006,12,Night
Decatur,GA,light,33.744850632911216,-84.26857784810052,30.0,2006,12,Night
Villa Rica,GA,unknown,33.71049999999998,-84.91119999999988,2700.0,2007,12,Night
Daniels,WV,light,37.72939999999999,-81.10629999999999,1800.0,2007,12,Night
Blairs,VA,circle,36.7182,-79.2986,5.0,2007,12,Night
Salem,VA,sphere,37.29064854368925,-80.09859126213573,3.0,2007,12,Night
Lesslie,SC,disk,,,5.0,2007,12,Night
Austin,TX,light,30.308469443732346,-97.76011171494544,,2006,12,Night
Fort Drum,FL,disk,,,150.0,2006,12,Night
Opp,AL,circle,31.29360000000001,-86.25950000000002,7200.0,2006,12,Night
Duluth,GA,fireball,33.99903628692001,-84.15485316455671,3.0,2006,12,Night
Groves,TX,other,29.94460000000001,-93.9175,120.0,2007,12,Night
Carrollton,TX,sphere,32.994355740181234,-96.8931658610276,120.0,2007,12,Night
Lutz,FL,triangle,28.153275609756104,-82.48028585365846,,2006,12,Night
Crosby,TX,other,29.923400000000008,-95.05779999999989,,2006,12,Night
Chester,VA,cone,37.343151515151526,-77.408581818182,,2007,12,Night
Moneta,VA,unknown,37.20209999999999,-79.62850000000002,3600.0,2007,12,Day
Windermere,FL,changing,28.48070000000004,-81.55180000000003,60.0,2007,12,Night
Clearwater,FL,light,27.962023177842628,-82.75161705539335,300.0,2006,12,Night
Apex,NC,triangle,35.71733365853661,-78.88086439024426,,2006,12,Night
Clarksville,TN,diamond,36.51515837104077,-87.36103416289579,300.0,2006,12,Night
Memphis,TN,unknown,35.12547266265736,-89.9269248223065,10.0,2007,12,Night
Pensacola,FL,light,30.462935377358694,-87.26545408805006,120.0,2007,12,Night
Cut Off,LA,circle,29.51670000000001,-90.30789999999998,180.0,2007,12,Night
Summerville,SC,light,33.031396402877775,-80.1881230215825,60.0,2006,12,Night
Owensboro,KY,light,37.76107061855678,-87.15569742268023,15.0,2007,12,Night
Jacksonville,FL,fireball,30.266904680970416,-81.61637283365769,12.5,2007,12,Night
Shelby,AL,circle,33.1104,-86.58409999999999,4800.0,2007,12,Night
Moneta,VA,other,37.20209999999999,-79.62850000000002,,2007,12,Night
Satellite Beach,FL,sphere,28.17370000000004,-80.59970000000003,18000.0,2007,12,Night
Bay City,TX,triangle,28.94117142857141,-95.79665102040816,750.0,2007,12,Night
Dora,AL,changing,33.72590000000001,-87.0471,,2007,12,Night
Monroe,GA,cigar,33.82505421686746,-83.69159518072293,60.0,2007,12,Night
Williston,FL,other,29.399200000000004,-82.44550000000001,2100.0,2007,12,Night
Winder,GA,cigar,33.98459999999989,-83.69779999999993,600.0,2007,12,Night
Baton,NC,other,,,,2007,12,Night
Lake CIty,FL,other,30.145284615384654,-82.63721730769232,2250.0,2007,12,Night
Westlake & Hardy,VA,diamond,,,900.0,2007,12,Night
Lakewood Ranch,FL,light,,,300.0,2007,12,Day
Plano,TX,sphere,33.048121504660216,-96.74114607190306,10.0,2007,12,Night
Charlottesville,VA,light,38.04475955882345,-78.53657691176473,1800.0,2007,12,Night
Panama City,FL,oval,30.207729949238427,-85.62376675126933,15.0,2006,12,Night
Orlando,FL,rectangle,28.51924669797446,-81.35409597886726,15.0,2006,12,Day
Raleigh,NC,changing,35.81800885085544,-78.64441853300764,10.0,2006,12,Day
Garland,TX,disk,32.90899691833597,-96.62589799691877,450.0,2007,12,Day
VA,SC,circle,,,600.0,2007,12,Night
Lafayette,LA,triangle,30.190793509127705,-92.04514239350922,4.5,2006,12,Night
Mocksville,NC,circle,35.89869999999999,-80.5740999999999,,2006,12,Night
Richmond,VA,unknown,37.55860753863546,-77.50798002261593,1.0,2006,12,Night
Flemingsburg,KY,diamond,38.4022,-83.7229,270.0,2006,12,Night
Homosassa,FL,sphere,28.75405161290322,-82.52686129032251,22.5,2004,12,Night
Headland,AL,unknown,31.3623,-85.3157,900.0,2004,12,Night
Englewood,FL,circle,26.958632653061173,-82.32509999999999,25.0,2007,12,Night
Brooksville,FL,disk,28.55954520547945,-82.43392876712333,600.0,2007,12,Night
Perry,GA,egg,32.43550000000003,-83.7267000000001,900.0,2006,12,Night
Carrollton,TX,triangle,32.994355740181234,-96.8931658610276,,2006,12,Night
Panama City Beach,FL,formation,30.289213333333297,-85.81383666666665,,2006,12,Night
Duluth,GA,unknown,33.99903628692001,-84.15485316455671,3.0,2006,12,Night
Cairo,GA,circle,30.835313043478248,-84.22103913043473,3600.0,2007,12,Day
McKinney,TX,light,33.19242476489042,-96.68101536050136,300.0,2007,12,Night
Lake Toxaway,NC,oval,35.1368,-82.9155,9.0,2007,12,Night
Palm Coast,FL,other,29.540925000000044,-81.20838511904773,10.0,2007,12,Night
Myrtle Beach,SC,egg,33.68314999999984,-78.9395390957444,25.0,2007,12,Night
Blue Ridge,GA,circle,34.78830000000001,-84.28270000000005,,2006,12,Night
Easley,SC,triangle,34.81419219858158,-82.57285602836882,18000.0,2005,12,Night
Charleston,WV,circle,38.3560958997721,-81.64009134396346,180.0,2005,12,Night
Merritt Island,FL,circle,28.370396710526368,-80.66729868421065,90.0,2006,12,Night
Huntersville,NC,rectangle,35.40346886792457,-80.86092735849063,600.0,2006,12,Night
Marietta,GA,circle,33.961887459016594,-84.510213196721,180.0,2006,12,Night
Mechanicsville,VA,triangle,37.64624405286344,-77.29160440528618,120.0,2006,12,Night
Louisa,KY,disk,38.11419999999999,-82.6032,300.0,2006,12,Day
Coppell,TX,fireball,32.95879999999996,-96.98120000000011,60.0,2006,12,Night
Satsuma,AL,oval,30.8571,-88.0589,120.0,2006,12,Day
Lancaster,KY,cigar,37.6857894736842,-84.5883842105263,,2006,12,Night
Lucedale,MS,triangle,30.88080000000001,-88.59220000000003,240.0,2006,12,Night
Memphis,TN,other,35.12547266265736,-89.9269248223065,,2006,12,Night
Tampa,FL,triangle,28.00681435810791,-82.47646101351302,720.0,2006,12,Night
Surfside Beach,SC,light,,,,2006,12,Day
Hemsted,TX,flash,,,,2006,12,Night
Highland Heights,KY,other,,,3000.0,2006,12,Night
Smithland,KY,cylinder,37.2806,-88.4739,150.0,2006,12,Day
Eldorado,AR,other,,,3600.0,2006,12,Night
Hampton City,VA,light,,,10.0,2006,12,Night
Pulaski,VA,other,37.06669999999999,-80.79170000000005,,2006,12,Night
Trinity,TX,circle,30.9692,-95.34859999999998,30.0,2006,12,Night
North Myrtle Beach,SC,light,33.83166000000003,-78.65013000000003,60.0,2006,12,Night
Blairsville,GA,light,34.856675000000024,-83.97030000000001,120.0,2006,12,Night
Southport,NC,light,33.997,-78.07290000000009,240.0,2006,12,Night
Wewahitchka,FL,fireball,29.9852,-85.19510000000001,60.0,2006,12,Night
Waycross,GA,fireball,31.20544727272725,-82.34733272727276,8.0,2006,12,Night
Jacksonville,FL,other,30.266904680970416,-81.61637283365769,7.5,2006,12,Night
Trumann,AR,chevron,35.57449999999998,-90.5215,30.0,2006,12,Night
Louisville,KY,disk,38.211214467651466,-85.68918456444241,180.0,2006,12,Day
Ennis,TX,light,32.32461351351353,-96.59038108108112,36000.0,2006,12,Night
Gentry,AR,triangle,36.2678,-94.4376,330.0,2006,12,Night
Boca Raton,FL,other,26.368061827957263,-80.13787724014395,7200.0,2004,12,Night
Alexandria,LA,cigar,31.272539664804462,-92.48309106145254,900.0,2005,12,Night
Murphy,NC,light,35.13969999999997,-84.09229999999992,30.0,2005,12,Night
Benton,MS,cylinder,32.8171,-90.2277,50.0,2007,12,Day
Lakeland,FL,unknown,28.04722715328456,-81.95884978102269,,2007,12,Day
Brownsville,TX,light,25.969362051282022,-97.44768564102569,210.0,2007,12,Night
Maumelle,AR,cigar,34.86750000000002,-92.40009999999992,600.0,2005,12,Night
Corpus Christi,TX,sphere,27.71750016181213,-97.40525129449864,9000.0,2007,12,Night
Charlotte,NC,light,35.205800840014845,-80.82639156166395,8.0,2005,12,Night
Wilmington,NC,triangle,34.238374952198605,-77.87846768642464,5.0,2008,12,Night
Fuquay,NC,triangle,,,120.0,2008,12,Night
Davie,FL,fireball,26.0629,-80.2331,120.0,2008,12,Night
Matagorda,TX,other,,,,2008,12,Night
Miami,FL,oval,25.77414271350745,-80.28951850011364,60.0,2009,12,Night
Heidelburg,MS,triangle,,,,2009,12,Night
Danville,VA,oval,36.62852387096777,-79.49231483870975,,2009,12,Night
Key West,FL,other,24.58480294117652,-81.68395882352922,15.0,2009,12,Night
Chatham,VA,oval,36.8385,-79.4334,,2009,12,Night
Conover,NC,light,35.742700000000006,-81.2093,180.0,2009,12,Night
Smiths Station,AL,diamond,,,300.0,2009,12,Night
Tupelp,MS,light,,,480.0,2009,12,Night
Loudon,TN,circle,35.71019999999999,-84.37429999999996,,2009,12,Day
Lonoke,AR,unknown,34.7885,-91.9277,,2009,12,Night
Pleasant Shade,TN,sphere,36.373,-85.9094,,2009,12,Night
Land OLakes,FL,light,,,,2009,12,Night
Aventura,FL,light,,,600.0,2009,12,Day
Fort Worth,TX,other,32.75736600322754,-97.34710441097356,300.0,2009,12,Night
Nacogdoches,TX,unknown,31.652585714285724,-94.5693780219781,4.0,2007,12,Day
Walnut Springs,TX,light,32.0703,-97.7588,,2009,12,Night
Richland Hills,TX,triangle,,,600.0,2009,12,Day
Leakey,TX,oval,29.8005,-99.7602,600.0,2009,12,Night
Ryland Heights,KY,other,,,,2009,12,Night
Partlow,VA,circle,38.075,-77.6663,900.0,2009,12,Night
Glen Allen,VA,unknown,37.68052397476333,-77.5361302839117,7.5,2009,12,Day
Delray Beach,FL,egg,26.45554743083016,-80.11589308300414,,2009,12,Night
El Dorado,AR,egg,33.1929,-92.64339999999996,9000.0,2009,12,Night
Vero Beach,FL,fireball,27.656004878048805,-80.4330238482385,300.0,2009,12,Night
Lexington,NC,light,35.79657604790423,-80.25426766467086,600.0,2009,12,Night
Burkeville,TX,other,31.0442,-93.6322,60.0,2009,12,Day
Baton Rouge,LA,light,30.42736711319548,-91.0869557267233,300.0,2009,12,Night
Fairfax,VA,other,38.84920832049281,-77.31409306625612,300.0,2009,12,Night
Seabrook,TX,unknown,29.58129999999996,-95.02729999999988,5.0,2009,12,Night
Cleburne,TX,triangle,32.34987083333336,-97.37565833333336,270.0,2009,12,Night
Mico,TX,formation,29.5441,-98.92310000000002,,2009,12,Night
Pembroke Pines,FL,light,26.0032,-80.2239,60.0,2009,12,Night
Cherry Grove,SC,triangle,,,210.0,2009,12,Night
Statesboro,GA,disk,32.39869629629626,-81.81958814814824,300.0,2009,12,Night
Rock Hill,SC,chevron,34.945105329153655,-81.05418338557972,3600.0,2009,12,Night
Columbia,SC,light,34.02910563770805,-80.99284038816866,5.0,2009,12,Night
Valdosta,GA,unknown,30.85822314814813,-83.30521064814809,2.0,2009,12,Night
Durham,NC,fireball,35.98046262866154,-78.89813626286602,5.0,2009,12,Night
Celebration,FL,triangle,,,30.0,2009,12,Night
Gulf of Mexico,TX,other,,,420.0,2009,12,Day
Mexia,TX,egg,31.6626,-96.49350000000004,4.0,2009,12,Night
Spring Hill,TN,disk,35.7174,-86.89260000000007,330.0,2009,12,Day
Mandeville,LA,light,30.39100748299316,-90.03365442176879,60.0,2009,12,Night
Mandeville,LA,disk,30.39100748299316,-90.03365442176879,2700.0,2009,12,Night
Tomball,TX,circle,30.0839000000001,-95.63833333333308,120.0,2009,12,Night
Lake Worth,FL,circle,26.60020571428564,-80.12513920634922,,2009,12,Night
Livingston,LA,unknown,30.402699999999992,-90.731,,2009,12,Night
Austin,TX,disk,30.308469443732346,-97.76011171494544,300.0,2009,12,Night
Fort Smith,AR,light,35.353695348837206,-94.38678217054265,3.0,2008,12,Night
Merritt Island,FL,circle,28.370396710526368,-80.66729868421065,,2008,12,Night
Fort Myers,FL,light,26.58139708890648,-81.84065302911138,300.0,2008,12,Night
Missouri City,TX,oval,29.549612269938635,-95.5218797546015,3600.0,2008,12,Night
Jackson,MS,other,32.32677480314962,-90.19263976377944,1800.0,2008,12,Night
Louisville,KY,unknown,38.211214467651466,-85.68918456444241,,2008,12,Night
Durham,NC,diamond,35.98046262866154,-78.89813626286602,,2008,12,Night
San Antonio,TX,oval,29.48886591714061,-98.47524044355946,2.0,2008,12,Night
Durham,NC,diamond,35.98046262866154,-78.89813626286602,1.0,2008,12,Night
Avon Park,FL,triangle,27.638699999999982,-81.40479999999997,,2008,12,Night
Norcross,GA,rectangle,33.940777733598445,-84.20881809145123,150.0,2008,12,Day
Dallas,TX,chevron,32.835168077433146,-96.80811785917246,120.0,2008,12,Night
Ashville,AL,unknown,33.785599999999995,-86.22080000000003,,2008,12,Night
Austin,TX,light,30.308469443732346,-97.76011171494544,2.0,2008,12,Night
Lakeway,TX,rectangle,,,,2008,12,Day
Miami,FL,cylinder,25.77414271350745,-80.28951850011364,1200.0,2008,12,Night
Maumelle,AR,fireball,34.86750000000002,-92.40009999999992,,2008,12,Night
Hendersonville,NC,light,35.35226428571421,-82.43025357142861,1800.0,2008,12,Night
Dallas,TX,light,32.835168077433146,-96.80811785917246,8.0,2008,12,Night
Front Royal,VA,teardrop,38.92259999999999,-78.13370000000009,7.5,2008,12,Night
Ocala,FL,changing,29.15317001620753,-82.11931701782794,,2008,12,Day
Margate,FL,oval,,,,2008,12,Night
Stephens City,VA,teardrop,39.0457,-78.2276000000001,7.5,2008,12,Night
Virginia Beach,VA,fireball,36.83730134271098,-76.06194814577877,,2008,12,Night
Yorktown,VA,sphere,37.1558976190477,-76.46353809523823,2.5,2008,12,Night
Vidor,TX,cone,30.179804545454544,-94.01005909090912,750.0,2008,12,Day
Amarillo,TX,sphere,35.185752012383894,-101.8629917956662,,2008,12,Night
Morehead,KY,light,38.20749999999999,-83.39890000000007,3.0,2008,12,Night
Alexandria,LA,circle,31.272539664804462,-92.48309106145254,210.0,2008,12,Night
Waynesville,GA,triangle,31.14,-81.8314,30.0,2008,12,Night
Surfside Beach,SC,light,,,600.0,2008,12,Night
Vinton,VA,circle,37.28340000000002,-79.81359999999997,150.0,2008,12,Night
Anniston,AL,light,33.68382553191487,-85.76905000000002,,2008,12,Night
Gainesville,VA,disk,38.81750000000008,-77.6308000000001,120.0,2008,12,Day
Lexington,KY,light,38.00883948620356,-84.47708249286414,900.0,2008,12,Night
Martinsburg,WV,triangle,39.45820440528631,-77.9605211453746,300.0,2008,12,Night
Fort Lauderdale,FL,triangle,26.136914681280626,-80.21914075569774,90.0,2008,12,Day
Naples,FL,unknown,26.19318196994997,-81.73703021702818,180.0,2008,12,Night
Miami,FL,triangle,25.77414271350745,-80.28951850011364,120.0,2008,12,Night
St. Petersburg,FL,cigar,27.79451493256266,-82.67515963391195,,2008,12,Night
Fort Lauderdale,FL,circle,26.136914681280626,-80.21914075569774,2.0,2008,12,Night
Coral Springs,FL,circle,,,,2008,12,Night
Stuart,FL,light,27.12549574468094,-80.24767319148933,30.0,2008,12,Night
Fort Lauderdale,FL,fireball,26.136914681280626,-80.21914075569774,5.0,2008,12,Night
Wellington,FL,sphere,,,1.0,2008,12,Night
North Palm Beach,FL,formation,26.854199999999995,-80.05470000000003,300.0,2008,12,Night
Fort Lauderdale,FL,circle,26.136914681280626,-80.21914075569774,3.5,2008,12,Night
Naples,FL,other,26.19318196994997,-81.73703021702818,,2008,12,Night
Georgetown,SC,unknown,33.36256744186045,-79.27719767441866,,2008,12,Night
Titusville,FL,unknown,28.54022121212127,-80.85438636363631,900.0,2008,12,Night
Pompano Beach,FL,cylinder,26.259570237239487,-80.18338936017291,1.0,2008,12,Night
Miami,FL,sphere,25.77414271350745,-80.28951850011364,80.0,2008,12,Night
Heber Springs,AR,light,35.4479,-91.9977,,2008,12,Night
Dade City,FL,circle,28.356988888888893,-82.24646666666669,60.0,2008,12,Day
Indian Rocks,FL,formation,,,20.0,2008,12,Night
Paris,TX,other,33.63016500000003,-95.55249,3.0,2008,12,Night
San Antonio,TX,rectangle,29.48886591714061,-98.47524044355946,3600.0,2008,12,Night
Cedar Park,TX,light,30.49983506493505,-97.80827857142845,3.5,2008,12,Night
Citronelle,AL,sphere,31.0906,-88.26560000000002,30.0,2008,12,Night
Lake Wales,FL,triangle,27.87365806451616,-81.51855806451611,90.0,2009,12,Night
Iota,LA,light,30.3417,-92.52049999999998,210.0,2009,12,Night
Harrisonburg,VA,formation,38.43080419847336,-78.88316106870256,,2009,12,Night
North Port,FL,unknown,27.07620952380954,-82.22327976190468,5.0,2009,12,Day
,TN,disk,,,10.0,2008,12,Day
Inverness,FL,circle,28.832439784946256,-82.30318279569906,5400.0,2008,12,Day
Vero Beach,FL,light,27.656004878048805,-80.4330238482385,30.0,2009,12,Night
Alexandria,KY,triangle,38.91910000000004,-84.39429999999996,3.0,2009,12,Night
Parksley,VA,triangle,37.7717,-75.63350000000001,2700.0,2009,12,Night
Paintsville,KY,fireball,37.81560000000001,-82.78279999999997,2.0,2008,12,Night
Murray,KY,rectangle,36.635500000000015,-88.28300000000004,,2009,12,Night
Taylors,SC,other,34.99650000000009,-82.32870000000001,21600.0,2009,12,Day
Austin,TX,disk,30.308469443732346,-97.76011171494544,60.0,2008,12,Night
Sarasota,FL,fireball,27.31073444108761,-82.4904402567977,270.0,2008,12,Night
Mims,FL,light,28.701,-80.9319,,2009,12,Night
Mineral,VA,oval,37.9352,-77.88079999999998,30.0,2009,12,Night
Marathon,FL,fireball,24.71630000000001,-81.07670000000003,330.0,2009,12,Night
Winter Haven,FL,circle,27.994415044247823,-81.70178672566365,1800.0,2008,12,Night
Wurtand,KY,other,,,,2008,12,Night
Newberry,NC,light,,,20.0,2008,12,Night
Spring Hill,FL,cigar,28.469209062499964,-82.53924249999976,1.0,2008,12,Night
Boca Raton,FL,formation,26.368061827957263,-80.13787724014395,8.5,2008,12,Night
Belton,TX,other,31.04500000000002,-97.50870000000002,600.0,2009,12,Night
Woodbridge,VA,other,38.64662271428561,-77.31405999999956,5.0,2009,12,Night
Des Allemands,LA,sphere,29.8217,-90.4149,1080.0,2009,12,Night
russlville,AR,unknown,,,,2008,12,Day
Davie,FL,sphere,26.0629,-80.2331,150.0,2008,12,Night
Davie,FL,sphere,26.0629,-80.2331,150.0,2008,12,Night
Spring Hill,TN,disk,35.7174,-86.89260000000007,300.0,2009,12,Night
Spruce Pine,NC,cylinder,35.9117,-82.0671,30.0,2009,12,Night
Baton Rouge,LA,light,30.42736711319548,-91.0869557267233,360.0,2009,12,Night
Pinehurst,NC,light,35.193600000000046,-79.46129999999995,60.0,2008,12,Night
Mount Gilead,NC,oval,35.2149,-80.0023,5.0,2008,12,Night
Asheboro,NC,disk,35.68614224137927,-79.8148250000001,30.0,2008,12,Day
Thomasville,NC,other,35.88259999999995,-80.08200000000011,,2008,12,Night
Jacksonville,NC,chevron,34.78280411764701,-77.41268470588257,,2008,12,Night
Jackson,TN,cylinder,35.64553919413915,-88.77842673992629,12.5,2008,12,Night
Florence,SC,sphere,34.174190816326494,-79.73023826530604,2250.0,2008,12,Night
Black Mountain,NC,light,35.60500000000001,-82.31320000000004,2400.0,2008,12,Night
Starks,LA,fireball,,,2.0,2008,12,Night
Florida,FL,circle,,,5.0,2008,12,Day
Louisville,KY,light,38.211214467651466,-85.68918456444241,300.0,2008,12,Day
Spring,TX,light,30.10690917030536,-95.47395807860404,,2008,12,Night
Fort Lauderdale,FL,fireball,26.136914681280626,-80.21914075569774,180.0,2008,12,Night
Katy,TX,light,29.77548037703486,-95.78561259640058,,2008,12,Night
Jacksonville,FL,diamond,30.266904680970416,-81.61637283365769,360.0,2008,12,Night
Gilmer,TX,light,32.74952909090912,-94.9525581818182,3600.0,2008,12,Night
Shreveport,LA,unknown,32.4442429245283,-93.76882279874206,420.0,2009,12,Night
Harlingen,TX,other,26.23264361702118,-97.69654095744696,,2004,12,Night
Slidell,LA,sphere,30.273227450980468,-89.77182254901952,180.0,2009,12,Night
Belton,TX,other,31.04500000000002,-97.50870000000002,300.0,2010,12,Night
Huntsville,AL,other,34.727967771639705,-86.62783879681086,15.0,2010,12,Day
Melbourne,FL,chevron,28.143012895927555,-80.69558755656139,5.0,2010,12,Night
The Woodlands,TX,sphere,,,120.0,2010,12,Night
Temple,GA,other,33.7704,-85.01150000000003,300.0,2010,12,Night
Temple,GA,other,33.7704,-85.01150000000003,300.0,2010,12,Day
Del Rio,TX,light,29.59974615384616,-100.81566153846153,,2010,12,Night
Richardson,TX,oval,32.96712791164686,-96.7163030120484,1200.0,2010,12,Day
Ocala,FL,teardrop,29.15317001620753,-82.11931701782794,600.0,2010,12,Night
Little Rock,AR,rectangle,34.73753627684961,-92.36319236276871,,2010,12,Night
Miami,FL,light,25.77414271350745,-80.28951850011364,,2010,12,Night
Cypress,TX,unknown,29.97647658730165,-95.6905196428565,180.0,2010,12,Night
Ward,AR,triangle,34.9946,-91.85760000000003,,2010,12,Night
Huntsvile,AL,formation,,,,2010,12,Night
Sandestin,FL,unknown,,,,2010,12,Night
Sandersville,GA,cigar,32.97519999999998,-82.85750000000003,,2010,12,Day
Loxahatchee,FL,rectangle,,,480.0,2010,12,Day
Four Oaks,NC,light,35.40589999999998,-78.37390000000003,1200.0,2010,12,Night
Wrightsville Beach,NC,light,34.217,-77.7896,5.0,2010,12,Night
Rogers,AR,unknown,36.2946503311259,-94.0343662251654,10.0,2010,12,Night
Haulover,FL,changing,,,180.0,2010,12,Day
Werisdale,FL,changing,,,10800.0,2010,12,Night
Apex,NC,other,35.71733365853661,-78.88086439024426,,2010,12,Night
Leesburg,FL,other,28.801677669902915,-81.82943058252408,7200.0,2010,12,Night
Kildare,TX,other,32.9432,-94.2482,600.0,2010,12,Night
Charlottesville,VA,chevron,38.04475955882345,-78.53657691176473,7200.0,2010,12,Night
Richmond,VA,cylinder,37.55860753863546,-77.50798002261593,60.0,2010,12,Night
Richmond,VA,disk,37.55860753863546,-77.50798002261593,120.0,2010,12,Night
Roanoke,VA,disk,37.27500415094346,-79.97072547169836,180.0,2010,12,Night
Nashville,TN,disk,36.131700042408816,-86.77681348600586,600.0,2010,12,Night
Houston,TX,disk,29.777493696652662,-95.4512204483613,300.0,2010,12,Day
Clearwater,FL,fireball,27.962023177842628,-82.75161705539335,900.0,2010,12,Day
Mandeville,LA,cigar,30.39100748299316,-90.03365442176879,90.0,2010,12,Night
Tamiami Trail,FL,other,,,60.0,2010,12,Night
Fort Pierce,FL,fireball,,,3.0,2010,12,Night
Jensen Beach,FL,light,27.255000000000063,-80.24759999999992,120.0,2010,12,Night
Coral Springs,FL,light,,,25.0,2010,12,Night
Bradenton,FL,other,27.460967103347933,-82.52932940320223,600.0,2010,12,Night
Orlando,FL,circle,28.51924669797446,-81.35409597886726,300.0,2010,12,Night
Hixson,TN,light,35.17050000000008,-85.20950000000022,180.0,2010,12,Night
Eufaula,AL,light,31.904850000000007,-85.17705,600.0,2010,12,Night
Hudson,FL,cone,28.377114516129,-82.64442016129021,1800.0,2010,12,Night
Troy,NC,sphere,35.4273,-79.95820000000002,450.0,2010,12,Night
Opelousas,LA,chevron,30.5335,-92.1151136363635,30.0,2010,12,Night
Coleman,TX,circle,31.817599999999985,-99.4701,3600.0,2010,12,Night
Bogata,TX,disk,,,360.0,2010,12,Night
Norfolk,VA,oval,36.88938336106483,-76.26208236272848,30.0,2010,12,Day
Longwood,FL,light,28.71875294117648,-81.37619869281045,,2010,12,Night
Oakland Park,FL,disk,,,3600.0,2010,12,Night
Joelton,TN,light,36.316500000000005,-86.92290000000001,,2010,12,Night
Venice,LA,light,,,300.0,2010,12,Night
Houston,TX,changing,29.777493696652662,-95.4512204483613,,2010,12,Day
McComb,MS,cylinder,31.20320000000001,-90.39560000000002,,2010,12,Night
Delray beach,FL,light,26.45554743083016,-80.11589308300414,7200.0,2010,12,Night
Alabaster,AL,circle,33.22399999999998,-86.77300000000005,1800.0,2010,12,Night
Baton Rouge,LA,oval,30.42736711319548,-91.0869557267233,150.0,2010,12,Night
Galveston,TX,changing,29.27463230769224,-94.8286743589744,20.0,2010,12,Night
Catharpin,VA,diamond,38.849,-77.5646,15.0,2010,12,Night
Wagram,NC,triangle,34.9232,-79.4047,,2010,12,Night
Weston,FL,circle,,,30.0,2010,12,Night
Atlanta,GA,oval,33.80870551584769,-84.38988231962149,60.0,2010,12,Night
Bluffton,SC,light,32.25280000000008,-80.88950000000008,150.0,2010,12,Night
Richmond,VA,sphere,37.55860753863546,-77.50798002261593,1800.0,2010,12,Night
Boca Raton,FL,flash,26.368061827957263,-80.13787724014395,600.0,2010,12,Night
Asheville,NC,other,35.582157528089944,-82.5532656179774,,2010,12,Night
Fort Worth,TX,fireball,32.75736600322754,-97.34710441097356,360.0,2010,12,Night
Roswell,GA,cylinder,34.04023923444971,-84.34734832535878,3.0,2010,12,Night
Jacksonville,FL,circle,30.266904680970416,-81.61637283365769,90.0,2010,12,Night
Floresville,TX,unknown,29.1191,-98.17329999999995,180.0,2010,12,Night
Slidell,LA,sphere,30.273227450980468,-89.77182254901952,180.0,2009,12,Night
Calhoun,GA,oval,34.49497297297296,-84.91442702702687,,2009,12,Night
Tampa,FL,disk,28.00681435810791,-82.47646101351302,300.0,2007,12,Night
Sugar Hill,GA,other,,,3.0,2010,12,Night
Emory-Yantis,TX,light,,,7200.0,2010,12,Night
Miami,FL,circle,25.77414271350745,-80.28951850011364,180.0,2010,12,Night
St. Petersburg,FL,unknown,27.79451493256266,-82.67515963391195,,2011,12,Night
Bowling Green,KY,light,37.03270772946864,-86.41964444444426,300.0,2011,12,Night
Melbourne,FL,light,28.143012895927555,-80.69558755656139,15.0,2011,12,Night
Hopewell,VA,triangle,37.27370000000001,-77.21969999999999,,2011,12,Night
Simsponville,SC,changing,,,1800.0,2011,12,Night
Everglades,FL,light,,,,2011,12,Night
Jacksonville,FL,fireball,30.266904680970416,-81.61637283365769,3.0,2011,12,Night
Titusville,FL,light,28.54022121212127,-80.85438636363631,8.0,2011,12,Night
Venice,FL,light,27.065818999999845,-82.39104000000012,1800.0,2011,12,Night
Spring Hill,FL,flash,28.469209062499964,-82.53924249999976,5.0,2011,12,Night
Hixson,TN,sphere,35.17050000000008,-85.20950000000022,240.0,2011,12,Night
Merritt Island,FL,fireball,28.370396710526368,-80.66729868421065,15.0,2011,12,Night
Fluvanna county,VA,oval,,,,2011,12,Night
Asheville,NC,light,35.582157528089944,-82.5532656179774,14400.0,2011,12,Night
Newport News,VA,flash,37.0923771309771,-76.4911945945945,180.0,2011,12,Night
Stella,NC,unknown,,,3600.0,2011,12,Night
Loxahatchee,FL,fireball,,,180.0,2011,12,Night
Myrtle Beach,SC,triangle,33.68314999999984,-78.9395390957444,3600.0,2011,12,Night
Simpsonville,SC,changing,34.743073664122214,-82.2392438931297,1200.0,2011,12,Night
Freeport,FL,fireball,30.471099999999986,-86.15520000000001,5.0,2011,12,Night
Wauchula,FL,rectangle,27.506300000000007,-81.77929999999998,180.0,2011,12,Day
Stagecoach,TX,cigar,,,,2011,12,Night
Tampa,FL,formation,28.00681435810791,-82.47646101351302,3600.0,2011,12,Night
Satellite Beach,FL,formation,28.17370000000004,-80.59970000000003,5.0,2011,12,Night
Sterling,VA,fireball,39.012762935323465,-77.42228358209002,3600.0,2011,12,Night
Palestine,TX,unknown,31.77727083333332,-95.60223333333332,,2011,12,Night
Conroe,TX,rectangle,30.278734128878256,-95.4550267303101,300.0,2011,12,Night
Port Saint Lucie,FL,light,27.28568630136981,-80.36344363992168,180.0,2011,12,Day
Marietta,GA,fireball,33.961887459016594,-84.510213196721,60.0,2011,12,Night
Naples,FL,other,26.19318196994997,-81.73703021702818,,2011,12,Night
Hobe Sound,FL,light,27.05459090909089,-80.14346909090908,3600.0,2011,12,Night
Bradenton,FL,changing,27.460967103347933,-82.52932940320223,,2011,12,Night
Bradenton,FL,changing,27.460967103347933,-82.52932940320223,,2011,12,Night
Clearwater,FL,circle,27.962023177842628,-82.75161705539335,,2011,12,Day
Henrico,VA,oval,,,10.0,2011,12,Night
Oldsmar,FL,oval,28.04440000000003,-82.67950000000013,180.0,2011,12,Night
Pumpkin Center,LA,light,,,600.0,2011,12,Night
Port Charlotte,FL,changing,26.98100661157025,-82.11690661157034,900.0,2011,12,Night
Boynton Beach,FL,fireball,26.524479610194827,-80.10637856072006,300.0,2011,12,Night
Lenore,WV,changing,37.824,-82.2831,,2011,12,Night
Rogers,AR,light,36.2946503311259,-94.0343662251654,120.0,2011,12,Night
Albany,GA,other,31.56107647058824,-84.17309019607838,2.0,2011,12,Night
Heathsville,VA,sphere,37.8799,-76.3927,30.0,2011,12,Day
Pompano Beach,FL,circle,26.259570237239487,-80.18338936017291,,2011,12,Night
Knoxville,TN,sphere,35.96156134085192,-83.98011528822053,,2011,12,Night
Bradenton,FL,triangle,27.460967103347933,-82.52932940320223,1800.0,2011,12,Night
Charleston,WV,circle,38.3560958997721,-81.64009134396346,3600.0,2011,12,Night
Delray Beach,FL,fireball,26.45554743083016,-80.11589308300414,,2011,12,Night
Winter Garden,FL,triangle,28.47857000000006,-81.6309860000002,,2011,12,Night
Sarasota,FL,triangle,27.31073444108761,-82.4904402567977,,2011,12,Night
The Villages,FL,light,28.93409999999996,-81.9598999999999,,2011,12,Night
Brooksville,FL,changing,28.55954520547945,-82.43392876712333,,2011,12,Night
Houston,TX,light,29.777493696652662,-95.4512204483613,30.0,2011,12,Day
Naples,FL,diamond,26.19318196994997,-81.73703021702818,30.0,2011,12,Night
Morganton,NC,circle,35.759709433962215,-81.7239245283019,210.0,2011,12,Night
Corpus Christi,TX,light,27.71750016181213,-97.40525129449864,,2011,12,Night
Rocky Mount,NC,formation,35.95475538461537,-77.83203846153842,1200.0,2011,12,Night
Midlothian,VA,circle,37.47343470873784,-77.66057111650456,,2011,12,Night
Austin,TX,fireball,30.308469443732346,-97.76011171494544,30.0,2011,12,Day
Austin,TX,cigar,30.308469443732346,-97.76011171494544,35.0,2011,12,Night
Arabi,LA,triangle,29.9681,-89.98530000000001,,2011,12,Night
Jacksonville,FL,light,30.266904680970416,-81.61637283365769,2700.0,2011,12,Night
New Cumberland,WV,disk,40.5177,-80.59130000000002,,2011,12,Night
Moncks Corner,SC,light,33.11799999999997,-80.03840000000012,2.0,2011,12,Night
Leland,NC,sphere,34.24319999999992,-78.09959999999978,,2011,12,Night
Morrisville,NC,light,35.86009999999995,-78.83259999999987,60.0,2011,12,Night
Zachary,LA,other,30.63789999999996,-91.17969999999994,360.0,2011,12,Night
Orlando,FL,fireball,28.51924669797446,-81.35409597886726,,2011,12,Night
Thompsons Station,TN,light,35.81720000000001,-86.93949999999997,5400.0,2011,12,Night
Fayetteville,NC,light,35.03683522123899,-78.92246247787618,,2011,12,Night
Richmond,KY,cigar,37.7662883333333,-84.30296000000006,,2011,12,Night
Bishopville,SC,diamond,34.2078,-80.2819,14400.0,2011,12,Night
Moore,SC,diamond,34.856399999999965,-82.02399999999992,120.0,2011,12,Night
Elgin,SC,light,34.18920000000002,-80.81669999999998,60.0,2011,12,Night
Hwy 58,VA,circle,,,60.0,2011,12,Night
Dallas,TX,circle,32.835168077433146,-96.80811785917246,,2011,12,Night
Birmingham,AL,circle,33.48091579651916,-86.77946934404252,12.5,2011,12,Night
Avinger,TX,oval,32.8756,-94.5285,120.0,2011,12,Night
Jensen Beach,FL,light,27.255000000000063,-80.24759999999992,15.0,2011,12,Night
Port Richey,FL,fireball,28.30183557046984,-82.7053919463087,60.0,2011,12,Night
Wellington,FL,formation,,,,2011,12,Night
Port Saint Lucie,FL,oval,27.28568630136981,-80.36344363992168,,2011,12,Night
Duck,NC,oval,,,45.0,2011,12,Night
Orlando,FL,light,28.51924669797446,-81.35409597886726,900.0,2011,12,Night
Port St Lucie,FL,oval,,,,2011,12,Night
Brusly,LA,teardrop,30.3853,-91.2749,120.0,2011,12,Night
Orlando,FL,light,28.51924669797446,-81.35409597886726,300.0,2011,12,Night
Durham,NC,disk,35.98046262866154,-78.89813626286602,,2011,12,Day
Gastonia,NC,fireball,35.233249779735694,-81.17918458149761,1200.0,2011,12,Night
Davie,FL,circle,26.0629,-80.2331,90.0,2011,12,Night
Davie,FL,circle,26.0629,-80.2331,600.0,2011,12,Night
Louisville,KY,light,38.211214467651466,-85.68918456444241,,2011,12,Night
Rogers,AR,triangle,36.2946503311259,-94.0343662251654,1200.0,2011,12,Night
Holden Beach,NC,egg,,,10800.0,2011,12,Night
Myrtle Beach,SC,formation,33.68314999999984,-78.9395390957444,,2011,12,Night
Manassas,VA,formation,38.74820707831358,-77.53053840361497,180.0,2011,12,Night
Myrtle Beach,SC,light,33.68314999999984,-78.9395390957444,330.0,2011,12,Night
Burke,VA,triangle,38.78510000000005,-77.28660000000005,,2011,12,Night
Concord,NC,fireball,35.40326904109577,-80.62708465753448,11.0,2011,12,Night
Salisbury,NC,unknown,35.67716577181206,-80.47988322147651,8.5,2011,12,Night
LaGrange,GA,disk,,,,2011,12,Night
LaGrange,GA,disk,,,,2011,12,Night
Pompano Beach,FL,circle,26.259570237239487,-80.18338936017291,3600.0,2011,12,Night
Duck Key,FL,other,,,10.0,2011,12,Night
Hays,NC,light,36.3357,-81.1171,60.0,2011,12,Night
Locust Grove,GA,rectangle,33.34480000000002,-84.11549999999993,,2011,12,Night
Loganville,GA,light,33.80419999999986,-83.88930000000029,4.0,2011,12,Night
Weaverville,NC,circle,35.72879999999999,-82.51379999999995,600.0,2011,12,Night
Jacksonville Beach,FL,triangle,30.28052941176466,-81.40464999999993,15.0,2011,12,Night
Alexandria,VA,light,38.798958214042806,-77.09513265167011,120.0,2011,12,Night
Greenville,NC,light,35.60140526315794,-77.24022186234846,8.0,2011,12,Night
Staunton,VA,flash,38.13703786407772,-79.06304077669886,3.0,2011,12,Night
Palmetto Bay,FL,disk,,,360.0,2011,12,Night
Cuero,TX,light,29.115900000000003,-97.27119999999996,,2011,12,Night
Orlando,FL,light,28.51924669797446,-81.35409597886726,30.0,2011,12,Night
King George,VA,triangle,38.27329999999997,-77.17389999999986,30.0,2011,12,Night
Fort Bragg,NC,unknown,35.146199999999965,-78.99429999999995,7200.0,2011,12,Night
Melbourne Beach,FL,diamond,27.966799999999992,-80.5096,,2011,12,Night
Flat Lick,KY,oval,,,30.0,2011,12,Night
Surfside,SC,unknown,,,300.0,2011,12,Night
Lexingtob,KY,fireball,,,10.0,2011,12,Night
Metter,GA,triangle,32.41430000000002,-82.09040000000003,300.0,2011,12,Night
Early Branch,SC,triangle,,,180.0,2011,12,Night
Spartanburg,SC,other,34.919972752043414,-81.92884277929107,,2011,12,Night
North Myrtle Beach,SC,light,33.83166000000003,-78.65013000000003,600.0,2011,12,Night
Pilot Mountain,NC,oval,36.4151,-80.4773,,2011,12,Night
Charlotte,NC,fireball,35.205800840014845,-80.82639156166395,3.0,2011,12,Night
Cumming,GA,sphere,34.17941111111121,-84.14029453860653,600.0,2011,12,Night
Longs,SC,other,33.894400000000005,-78.75029999999998,,2011,12,Night
North Myrtle Beach,NC,unknown,,,,2011,12,Night
Sarasota,FL,disk,27.31073444108761,-82.4904402567977,,2011,12,Day
Alice,TX,other,27.704867999999983,-98.08410600000003,,2011,12,Night
Hazard,KY,unknown,37.29853928571429,-83.08115714285715,,2011,12,Night
San Antonio,TX,circle,29.48886591714061,-98.47524044355946,60.0,2011,12,Night
Sarasota,FL,unknown,27.31073444108761,-82.4904402567977,300.0,2011,12,Night
Sarasota,FL,light,27.31073444108761,-82.4904402567977,300.0,2011,12,Night
Florence,SC,unknown,34.174190816326494,-79.73023826530604,180.0,2011,12,Night
Summerville,SC,other,33.031396402877775,-80.1881230215825,2.0,2011,12,Night
Hinesville,GA,sphere,31.858099999999983,-81.58539999999995,1200.0,2011,12,Night
Tampa,FL,fireball,28.00681435810791,-82.47646101351302,2.0,2011,12,Night
Eureka Springs,AR,light,36.40597142857144,-93.78709999999998,300.0,2011,12,Night
Aiken County,SC,formation,,,120.0,2011,12,Night
Knoxville,TN,fireball,35.96156134085192,-83.98011528822053,60.0,2011,12,Night
Charlotte,NC,sphere,35.205800840014845,-80.82639156166395,3.5,2011,12,Night
St. Petersburg,FL,other,27.79451493256266,-82.67515963391195,3.0,2011,12,Night
Ashburn,VA,circle,39.02274220099852,-77.52534743064919,,2011,12,Night
Cochran,GA,unknown,32.43330000000001,-83.341,,2011,12,Night
Saint George,SC,light,33.186,-80.5756,,2011,12,Night
Perry,GA,light,32.43550000000003,-83.7267000000001,120.0,2011,12,Night
Pelham,GA,fireball,31.0974,-84.1974,3.0,2011,12,Day
Deltona,FL,triangle,28.892171511628,-81.22035,,2011,12,Night
Partlow,VA,flash,38.075,-77.6663,,2011,12,Night
Harrisonburg,VA,other,38.43080419847336,-78.88316106870256,540.0,2007,12,Night
Gainesville,VA,circle,38.81750000000008,-77.6308000000001,900.0,2010,12,Night
Clarksville,TN,oval,36.51515837104077,-87.36103416289579,,2006,12,Night
Gainesville,FL,circle,29.64608679245284,-82.3810761006288,300.0,2011,12,Night
Venice,FL,oval,27.065818999999845,-82.39104000000012,300.0,2011,12,Night
Oak Island,NC,light,33.9083,-78.0785,1.0,2011,12,Night
Norfolk,VA,light,36.88938336106483,-76.26208236272848,1.0,2011,12,Night
Chattanooga,TN,light,35.055137114427815,-85.27057024875567,1800.0,2011,12,Night
Chattanooga,TN,fireball,35.055137114427815,-85.27057024875567,1050.0,2011,12,Night
Cowpens,SC,fireball,35.0607,-81.7951,,2011,12,Night
Charlotte,NC,light,35.205800840014845,-80.82639156166395,15.0,2011,12,Night
Gastonia,NC,light,35.233249779735694,-81.17918458149761,,2011,12,Night
Beaufort,SC,unknown,32.3987017857143,-80.69887232142867,,2011,12,Night
Sarasota,FL,oval,27.31073444108761,-82.4904402567977,60.0,2011,12,Night
White Hall,AR,circle,34.2853,-92.1486,,2012,12,Night
Natchitoches,LA,triangle,31.69838035714285,-93.11027500000004,5.0,2011,12,Night
Clarksburg,WV,disk,39.28232410714289,-80.36761964285722,30.0,2012,12,Night
Hickory,NC,sphere,35.73834549999995,-81.35073999999982,120.0,2011,12,Night
Mooresville,NC,light,35.574077033492856,-80.86029617224865,90.0,2011,12,Night
Melbourne,FL,fireball,28.143012895927555,-80.69558755656139,20.0,2012,12,Night
Chuluota,FL,fireball,,,600.0,2012,12,Night
Mandeville,LA,sphere,30.39100748299316,-90.03365442176879,2700.0,2012,12,Night
Rockport,TX,other,28.03768727272728,-97.09301454545457,,2012,12,Day
Jefferson,GA,other,34.09639999999995,-83.57399999999988,,2012,12,Day
Ocean Springs,MS,egg,30.43996197183096,-88.75735633802822,600.0,2012,12,Day
Russellville,AR,chevron,35.28934141414137,-93.09225151515164,180.0,2012,12,Night
Lawerenceville,GA,other,,,60.0,2012,12,Night
Greenville,AL,triangle,31.744000000000018,-86.6522,20.0,2012,12,Night
Webster,TX,changing,29.5489,-95.1391,10800.0,2012,12,Night
Moundville,AL,sphere,32.9394,-87.5851,900.0,2012,12,Day
Magnolia,TX,other,30.187144202898548,-95.6933369565219,60.0,2012,12,Day
Sugar Land,TX,fireball,29.584345799011675,-95.6335087314672,1800.0,2012,12,Night
Fayetteville,NC,cross,35.03683522123899,-78.92246247787618,120.0,2012,12,Night
Dallas,TX,light,32.835168077433146,-96.80811785917246,3600.0,2012,12,Night
Camp Mckall,NC,triangle,,,300.0,2012,12,Night
Richmond,VA,oval,37.55860753863546,-77.50798002261593,300.0,2012,12,Night
Greenville,TN,triangle,,,,2012,12,Night
Boca Raton,FL,fireball,26.368061827957263,-80.13787724014395,180.0,2012,12,Night
Hialeah,FL,fireball,25.893811055276416,-80.31887708542773,210.0,2012,12,Night
Ovilla,TX,light,,,2700.0,2012,12,Night
Colonial Heights,VA,triangle,37.28789999999996,-77.41529999999993,1800.0,2012,12,Night
Opp,AL,light,31.29360000000001,-86.25950000000002,5.0,2012,12,Day
Venice,FL,fireball,27.065818999999845,-82.39104000000012,270.0,2012,12,Night
Destin,FL,fireball,30.39798354430373,-86.45729999999989,1350.0,2012,12,Night
Grovetown,GA,triangle,33.46210000000005,-82.22199999999994,60.0,2012,12,Night
Norfolk,VA,triangle,36.88938336106483,-76.26208236272848,60.0,2012,12,Night
Lobelville,TN,unknown,35.7559,-87.8449,300.0,2012,12,Night
Vidor,TX,unknown,30.179804545454544,-94.01005909090912,180.0,2012,12,Night
Vero Beach,FL,sphere,27.656004878048805,-80.4330238482385,80.0,2012,12,Night
Stuart,FL,fireball,27.12549574468094,-80.24767319148933,210.0,2012,12,Night
Gainesville,FL,light,29.64608679245284,-82.3810761006288,60.0,2012,12,Night
Ruskin,FL,fireball,27.710464044943787,-82.43145730337093,,2012,12,Night
Port Saint Lucie,FL,sphere,27.28568630136981,-80.36344363992168,1500.0,2012,12,Night
Tampa,FL,fireball,28.00681435810791,-82.47646101351302,60.0,2012,12,Night
Tampa,FL,fireball,28.00681435810791,-82.47646101351302,60.0,2012,12,Night
Holmes Beach,FL,circle,,,,2012,12,Night
West Palm Beach,FL,light,26.70504529494388,-80.13514009831465,450.0,2012,12,Night
Sanford,FL,light,28.81493000000006,-81.33946476190496,60.0,2012,12,Day
Hollywood,FL,fireball,26.00384686961525,-80.25853004020604,120.0,2012,12,Day
Burke,VA,sphere,38.78510000000005,-77.28660000000005,180.0,2012,12,Night
Burke,VA,sphere,38.78510000000005,-77.28660000000005,180.0,2012,12,Night
Ponte Vedra beach,FL,cylinder,30.10861724137932,-81.35468965517224,30.0,2012,12,Night
Delray Beach,FL,fireball,26.45554743083016,-80.11589308300414,300.0,2012,12,Night
Charlotte,NC,changing,35.205800840014845,-80.82639156166395,600.0,2011,12,Night
Buckhead Ridge,FL,light,,,360.0,2012,12,Night
Atlantic Beach,FL,sphere,30.36070000000001,-81.4261999999999,720.0,2012,12,Night
Weeki Wachee,FL,fireball,,,240.0,2012,12,Night
Okeeckobee,FL,diamond,,,480.0,2012,12,Day
Foley,AL,light,30.40659999999992,-87.68360000000015,210.0,2012,12,Night
Youngsville,NC,formation,35.99479999999998,-78.44049999999997,300.0,2012,12,Night
Pompano beach,FL,fireball,26.259570237239487,-80.18338936017291,300.0,2012,12,Night
Augusta,GA,light,33.458483273381354,-82.04117769784212,120.0,2012,12,Night
Trion,GA,rectangle,34.5848,-85.2903,,2012,12,Night
Livingston,TX,light,30.72681818181817,-94.82404772727268,600.0,2012,12,Night
Ladson,SC,light,32.98309999999997,-80.1223,600.0,2012,12,Night
Fort Myers,FL,fireball,26.58139708890648,-81.84065302911138,300.0,2012,12,Night
Fort Myers,FL,fireball,26.58139708890648,-81.84065302911138,120.0,2012,12,Night
Summerville,SC,triangle,33.031396402877775,-80.1881230215825,300.0,2012,12,Night
Orlando,FL,light,28.51924669797446,-81.35409597886726,52.5,2012,12,Night
Asheboro,NC,light,35.68614224137927,-79.8148250000001,5.0,2012,12,Night
Deridder,LA,fireball,30.82770000000001,-93.2494,3.5,2012,12,Night
Currie,NC,other,34.4256,-78.0774,180.0,2012,12,Night
Dulles,VA,flash,39.05349999999999,-77.49226666666668,2.5,2012,12,Night
Sarasota,FL,fireball,27.31073444108761,-82.4904402567977,10.0,2012,12,Night
Coral Spring,FL,light,,,,2012,12,Night
Magnolia,MS,circle,31.1054,-90.4671,600.0,2012,12,Night
Selma,AL,changing,32.502263265306105,-87.04436734693883,7200.0,2012,12,Night
Ladson,SC,triangle,32.98309999999997,-80.1223,240.0,2012,12,Night
Louisville,KY,light,38.211214467651466,-85.68918456444241,90.0,2012,12,Night
Cape Coral,FL,fireball,26.6164216981131,-81.97006591981146,240.0,2012,12,Night
Orlando,FL,circle,28.51924669797446,-81.35409597886726,90.0,2012,12,Night
DeBary,FL,sphere,28.89390000000001,-81.31939999999999,750.0,2012,12,Night
Thomasville,NC,formation,35.88259999999995,-80.08200000000011,10.0,2012,12,Night
Gainesville,FL,other,29.64608679245284,-82.3810761006288,600.0,2012,12,Night
Fort Myers,FL,sphere,26.58139708890648,-81.84065302911138,180.0,2012,12,Night
Heathrow,FL,light,,,180.0,2012,12,Night
Greenville,SC,light,34.83721312741325,-82.33834929214929,120.0,2012,12,Night
Karne City,TX,fireball,,,1800.0,2012,12,Night
Smyrna,TN,sphere,35.959300000000155,-86.54199999999983,180.0,2012,12,Night
Fort Myers,FL,formation,26.58139708890648,-81.84065302911138,240.0,2012,12,Night
Odessa,TX,circle,31.869177391304337,-102.3695095652176,300.0,2012,12,Night
Doral,FL,fireball,25.8195,-80.3553,900.0,2012,12,Night
Tampa,FL,diamond,28.00681435810791,-82.47646101351302,240.0,2012,12,Night
Columbia,SC,fireball,34.02910563770805,-80.99284038816866,180.0,2012,12,Night
Savannah,GA,triangle,32.02970094086019,-81.13525336021517,600.0,2012,12,Night
Key West,FL,disk,24.58480294117652,-81.68395882352922,,2012,12,Day
Memphis,TN,fireball,35.12547266265736,-89.9269248223065,35.0,2012,12,Night
Norfolk,VA,fireball,36.88938336106483,-76.26208236272848,300.0,2012,12,Night
Melbourne,FL,fireball,28.143012895927555,-80.69558755656139,120.0,2012,12,Night
Seffner,FL,light,28.004200000000026,-82.29359999999998,1800.0,2012,12,Night
Gordo,AL,fireball,33.2797,-87.9176,30.0,2012,12,Night
Miami,FL,light,25.77414271350745,-80.28951850011364,180.0,2012,12,Night
Birmingham,AL,sphere,33.48091579651916,-86.77946934404252,150.0,2012,12,Night
Cypress,TX,other,29.97647658730165,-95.6905196428565,15.0,2012,12,Day
Pensacola,FL,light,30.462935377358694,-87.26545408805006,60.0,2012,12,Day
Little Rock,AR,cigar,34.73753627684961,-92.36319236276871,15.0,2012,12,Night
Fredericksburg,VA,changing,38.28988855325928,-77.48740445151074,300.0,2012,12,Night
Corpus Christi,TX,light,27.71750016181213,-97.40525129449864,900.0,2012,12,Night
Pensacola,FL,fireball,30.462935377358694,-87.26545408805006,900.0,2011,12,Night
Dennard,AR,circle,35.7319,-92.57,,2012,12,Night
Marion,NC,light,35.73870000000004,-82.05479999999991,2.5,2012,12,Night
Reston,VA,changing,38.93909303435202,-77.34533272900626,30.0,2012,12,Night
Wilmington,NC,light,34.238374952198605,-77.87846768642464,15.0,2012,12,Night
Myrtle Beach,SC,light,33.68314999999984,-78.9395390957444,180.0,2012,12,Night
Montgomery,TX,unknown,30.41326428571432,-95.70465714285712,1800.0,2012,12,Night
Buford,GA,unknown,34.10748561151092,-83.97732661870536,300.0,2012,12,Night
Denton,TX,light,33.195022794117776,-97.11429981617582,12.5,2012,12,Night
Sarasota,FL,light,27.31073444108761,-82.4904402567977,120.0,2012,12,Night
Rancho Viejo,TX,teardrop,,,30.0,2012,12,Night
Cocoa,FL,unknown,28.4194412371134,-80.79460927835058,600.0,2012,12,Night
Houston,TX,unknown,29.777493696652662,-95.4512204483613,1.0,2012,12,Night
Max Meadows,VA,light,36.9663,-80.9384,330.0,2012,12,Day
Alvarado,TX,circle,32.429999999999986,-97.1929,60.0,2012,12,Night
Ingleside,TX,fireball,27.865,-97.2001,120.0,2012,12,Night
Wellington,FL,oval,,,30.0,2012,12,Night
Blum,TX,triangle,32.1019,-97.3827,3600.0,2012,12,Night
Spindale,NC,circle,35.3586,-81.92380000000001,300.0,2012,12,Night
Myrtle Beach,SC,light,33.68314999999984,-78.9395390957444,450.0,2012,12,Night
Odessa,TX,fireball,31.869177391304337,-102.3695095652176,12.5,2012,12,Night
Weeki Wachee,FL,fireball,,,1200.0,2012,12,Night
Oviedo,FL,light,28.673367261904662,-81.17914702380934,600.0,2012,12,Night
Raleigh,NC,light,35.81800885085544,-78.64441853300764,450.0,2012,12,Night
Gardendale,AL,light,33.70610000000004,-86.82380000000009,1.0,2012,12,Day
Atlanta,GA,light,33.80870551584769,-84.38988231962149,15.0,2012,12,Night
Davie,FL,fireball,26.0629,-80.2331,750.0,2012,12,Night
Knoxville,TN,diamond,35.96156134085192,-83.98011528822053,15.0,2012,12,Night
Sunset Beach,NC,light,33.9269,-78.5219,600.0,2012,12,Night
Loris,SC,light,34.02099999999999,-78.90979999999995,60.0,2012,12,Night
Fort Myers,FL,fireball,26.58139708890648,-81.84065302911138,,2012,12,Night
Little River,SC,light,33.875,-78.65819999999992,30.0,2012,12,Night
Miami,FL,cigar,25.77414271350745,-80.28951850011364,1.0,2012,12,Night
Marshall,NC,flash,35.902000000000015,-82.68689999999997,10800.0,2012,12,Night
Nashville,TN,light,36.131700042408816,-86.77681348600586,150.0,2012,12,Night
Sunshine,AR,unknown,,,120.0,2012,12,Night
Memphis,TN,circle,35.12547266265736,-89.9269248223065,120.0,2012,12,Night
Graycourt,SC,triangle,,,600.0,2012,12,Night
New Smyrna Beach,FL,fireball,28.99172112676058,-80.99088169014094,120.0,2012,12,Night
Garland,TX,circle,32.90899691833597,-96.62589799691877,2.0,2012,12,Night
Louisville,KY,formation,38.211214467651466,-85.68918456444241,600.0,2012,12,Night
Richmond,KY,light,37.7662883333333,-84.30296000000006,25.0,2012,12,Day
Rye,TX,oval,,,600.0,2012,12,Day
Seminole,FL,other,27.84632195121951,-82.78800243902425,240.0,2012,12,Night
Fort Smith,AR,circle,35.353695348837206,-94.38678217054265,120.0,2012,12,Night
Homewood,AL,light,,,3.0,2012,12,Night
Hernando,MS,sphere,34.80330000000002,-89.98949999999999,,2012,12,Night
Burgaw,NC,triangle,34.5521,-77.90679999999999,30.0,2012,12,Night
Fayetteville,NC,disk,35.03683522123899,-78.92246247787618,1200.0,2012,12,Night
New Orleans,LA,flash,29.965903380783,-90.07844564056926,4.0,2012,12,Night
Memphis,TN,circle,35.12547266265736,-89.9269248223065,2700.0,2012,12,Night
Morgantown,WV,sphere,39.618046273291775,-79.95917639751558,4.0,2012,12,Night
Alexandria,VA,light,38.798958214042806,-77.09513265167011,60.0,2012,12,Night
Marietta,GA,sphere,33.961887459016594,-84.510213196721,180.0,2012,12,Night
Havelock,NC,circle,34.90079999999995,-76.82619999999999,1800.0,2012,12,Night
Port Saint Lucie,FL,light,27.28568630136981,-80.36344363992168,300.0,2012,12,Day
Abilene,TX,light,32.39435138461548,-99.7900440000002,900.0,2012,12,Night
Venice,FL,sphere,27.065818999999845,-82.39104000000012,600.0,2012,12,Night
Ocoee,FL,oval,28.57040000000003,-81.52980000000007,120.0,2012,12,Night
Winter Park,FL,fireball,28.604756659142208,-81.33553363431103,450.0,2012,12,Night
Fritch,TX,circle,35.5895,-101.5961,15.0,2012,12,Night
Polk City,FL,fireball,28.2321,-81.81150000000001,180.0,2012,12,Day
Delray Beach,FL,fireball,26.45554743083016,-80.11589308300414,300.0,2012,12,Night
Middlesboro,KY,fireball,36.64419999999997,-83.65549999999993,30.0,2012,12,Night
Deltona,FL,flash,28.892171511628,-81.22035,1800.0,2012,12,Night
Arapahoe,NC,fireball,35.0109,-76.8119,60.0,2012,12,Day
Attalla,AL,light,34.090500000000006,-86.04420000000002,30.0,2012,12,Day
Gunter,TX,light,33.452099999999994,-96.72709999999998,180.0,2012,12,Night
Cooper City,FL,light,,,1.0,2012,12,Night
Aurora,NC,circle,,,600.0,2012,12,Night
Christiansburg,VA,rectangle,37.1039046153846,-80.42051846153842,240.0,2012,12,Night
Miami,FL,circle,25.77414271350745,-80.28951850011364,300.0,2012,12,Night
Nicholson,GA,circle,34.114,-83.43159999999996,10.0,2012,12,Night
Flowery Branch,GA,flash,34.16750000000001,-83.91200000000006,3.0,2012,12,Night
Columbia,SC,light,34.02910563770805,-80.99284038816866,5.0,2012,12,Night
Pompano beach,FL,fireball,26.259570237239487,-80.18338936017291,300.0,2012,12,Night
Hollywood Beach,FL,oval,,,10.0,2012,12,Night
Cameron,TX,diamond,30.847,-96.89719999999998,210.0,2012,12,Night
Cameron,TX,other,30.847,-96.89719999999998,600.0,2012,12,Night
Plant City,FL,fireball,28.021728915662656,-82.12932289156639,240.0,2012,12,Night
Batesville,MS,light,34.298800000000014,-89.94779999999999,,2012,12,Night
Geneva,GA,triangle,,,1.0,2012,12,Day
Burleson,TX,light,32.530718867924485,-97.30784905660384,10.0,2012,12,Night
Taylors,SC,fireball,34.99650000000009,-82.32870000000001,90.0,2013,12,Night
Orlando,FL,formation,28.51924669797446,-81.35409597886726,,2013,12,Night
Coral Springs,FL,light,,,600.0,2013,12,Day
Jupiter,FL,diamond,26.94004465753424,-80.13581534246552,90.0,2013,12,Night
Jacksonville,FL,circle,30.266904680970416,-81.61637283365769,60.0,2013,12,Night
Marksville,LA,disk,31.18380000000001,-92.0153,120.0,2013,12,Night
Venice,FL,oval,27.065818999999845,-82.39104000000012,1800.0,2013,12,Night
Alabaster,AL,fireball,33.22399999999998,-86.77300000000005,10.0,2013,12,Night
Virginia Beach,VA,egg,36.83730134271098,-76.06194814577877,3600.0,2013,12,Day
Cape Coral,FL,circle,26.6164216981131,-81.97006591981146,3600.0,2013,12,Night
Nashville,TN,triangle,36.131700042408816,-86.77681348600586,300.0,2013,12,Night
Roanoke,VA,other,37.27500415094346,-79.97072547169836,,2013,12,Night
Fayetteville,AR,formation,36.047871851851895,-94.0445377777781,300.0,2013,12,Night
Greensboro,NC,sphere,36.076963026165934,-79.8158138794089,60.0,2013,12,Night
Crestview,FL,sphere,30.68732909090911,-86.59313636363639,,2013,12,Night
Spring,TX,unknown,30.10690917030536,-95.47395807860404,120.0,2013,12,Night
New Orleans,LA,sphere,29.965903380783,-90.07844564056926,180.0,2013,12,Night
Jacksonville,FL,circle,30.266904680970416,-81.61637283365769,90.0,2013,12,Night
Covington,LA,circle,30.492624691357985,-90.13192037037048,600.0,2013,12,Night
Valrico,FL,light,27.92732583732053,-82.23285933014328,600.0,2013,12,Night
Slidell,LA,light,30.273227450980468,-89.77182254901952,1500.0,2013,12,Night
Vero Beach,FL,fireball,27.656004878048805,-80.4330238482385,20.0,2013,12,Night
Miami,FL,fireball,25.77414271350745,-80.28951850011364,30.0,2013,12,Night
Port Charlotte,FL,sphere,26.98100661157025,-82.11690661157034,60.0,2013,12,Night
Louisville,KY,sphere,38.211214467651466,-85.68918456444241,45.0,2013,12,Night
Fredericksburg,VA,egg,38.28988855325928,-77.48740445151074,120.0,2013,12,Day
Sanford,FL,fireball,28.81493000000006,-81.33946476190496,300.0,2013,12,Night
Belle,WV,triangle,38.2398,-81.4917,4.5,2013,12,Night
New Port Richey,FL,disk,28.24270049382709,-82.67723901234524,960.0,2013,12,Night
Pigeon Forge,TN,oval,35.78020909090909,-83.56898181818183,300.0,2013,12,Night
Orlando,FL,light,28.51924669797446,-81.35409597886726,600.0,2013,12,Night
Midlothian,VA,triangle,37.47343470873784,-77.66057111650456,180.0,2013,12,Night
Orlando,FL,fireball,28.51924669797446,-81.35409597886726,300.0,2013,12,Night
Weston,FL,circle,,,,2013,12,Night
Port Charlotte,FL,sphere,26.98100661157025,-82.11690661157034,37.5,2013,12,Night
Port Richey,FL,light,28.30183557046984,-82.7053919463087,450.0,2013,12,Night
Belmont,NC,light,35.217799999999976,-81.03940000000009,120.0,2013,12,Night
Fort Lauderdale,FL,other,26.136914681280626,-80.21914075569774,5.0,2010,12,Night
Bartow County,GA,circle,,,60.0,2013,12,Night
Little Rock,AR,cigar,34.73753627684961,-92.36319236276871,,2013,12,Night
Alpharetta,GA,circle,34.08218459958972,-84.26424661190921,1200.0,2013,12,Night
Boynton Beach,FL,circle,26.524479610194827,-80.10637856072006,90.0,2013,12,Night
Foley,AL,diamond,30.40659999999992,-87.68360000000015,300.0,2013,12,Night
Batesville,MS,unknown,34.298800000000014,-89.94779999999999,600.0,2013,12,Night
Keyser,WV,flash,39.45299999999998,-78.94939999999998,90.0,2013,12,Night
Port Saint Lucie,FL,oval,27.28568630136981,-80.36344363992168,600.0,2013,12,Night
Wrightsville Beach,NC,other,34.217,-77.7896,600.0,2013,12,Night
Marietta,GA,fireball,33.961887459016594,-84.510213196721,600.0,2013,12,Night
Largo,FL,sphere,27.901617291066263,-82.77851383285332,3600.0,2013,12,Night
Sterling,VA,light,39.012762935323465,-77.42228358209002,660.0,2013,12,Night
New Orleans,LA,light,29.965903380783,-90.07844564056926,,2013,12,Night
Aiken,SC,light,33.5040955882353,-81.68538529411772,30.0,2013,12,Night
Port Charlotte,FL,triangle,26.98100661157025,-82.11690661157034,150.0,2013,12,Night
Calabash,NC,formation,33.9182,-78.59989999999999,120.0,2013,12,Night
Rocky Mount,VA,changing,36.95180000000003,-79.85920000000003,600.0,2013,12,Night
New Bern,NC,light,35.148863694267554,-77.08236305732488,120.0,2013,12,Night
Myrtle Beach,SC,sphere,33.68314999999984,-78.9395390957444,300.0,2013,12,Night
League City,TX,light,29.507498783454825,-95.08956569343025,300.0,2013,12,Night
Orlando,FL,unknown,28.51924669797446,-81.35409597886726,1350.0,2013,12,Night
Orange Heights,FL,other,,,300.0,2013,12,Day
Tequesta,FL,fireball,,,120.0,2013,12,Night
Sarasota,FL,fireball,27.31073444108761,-82.4904402567977,300.0,2013,12,Night
Hampton Roads,VA,triangle,,,10800.0,2013,12,Night
Cleveland,TN,sphere,35.16131194029841,-84.8735577114427,180.0,2013,12,Night
Bay Saint Louis,MS,fireball,30.272981818181822,-89.44345454545453,360.0,2013,12,Night
Wellington,FL,sphere,,,450.0,2013,12,Night
Naples,FL,circle,26.19318196994997,-81.73703021702818,30.0,2013,12,Night
Jacksonville,FL,fireball,30.266904680970416,-81.61637283365769,60.0,2013,12,Night
Marco Island,FL,teardrop,25.93779459459457,-81.69881891891895,600.0,2013,12,Day
Ivor,VA,light,36.9098,-76.8616,40.0,2013,12,Night
Altamonte Springs,FL,sphere,28.66467850162859,-81.40282866449502,600.0,2013,12,Night
Longwood,FL,sphere,28.71875294117648,-81.37619869281045,120.0,2013,12,Day
Boynton Beach,FL,sphere,26.524479610194827,-80.10637856072006,480.0,2013,12,Night
Middleburg,FL,sphere,30.0829551020408,-81.86297346938785,420.0,2013,12,Night
Bossier City,LA,circle,32.52439694656482,-93.67078931297706,300.0,2013,12,Night
Fort Lauderdale,FL,circle,26.136914681280626,-80.21914075569774,180.0,2013,12,Night
Palm Beach Gardens,FL,fireball,26.83890994318186,-80.16463636363615,600.0,2013,12,Night
Wilmington,NC,circle,34.238374952198605,-77.87846768642464,27.5,2013,12,Night
Hickory,NC,formation,35.73834549999995,-81.35073999999982,120.0,2013,12,Night
Saint Cloud,FL,fireball,28.22573378378376,-81.2370689189189,300.0,2013,12,Night
Aubrey,TX,fireball,33.304300000000005,-96.98610000000004,900.0,2013,12,Night
High Point,NC,light,35.974904029304035,-80.0163692307691,300.0,2013,12,Night
Myrtle Beach,SC,fireball,33.68314999999984,-78.9395390957444,600.0,2013,12,Night
Huntsville,AL,changing,34.727967771639705,-86.62783879681086,240.0,2013,12,Night
Tampa,FL,sphere,28.00681435810791,-82.47646101351302,600.0,2013,12,Night
New Port Richey,FL,disk,28.24270049382709,-82.67723901234524,1050.0,2013,12,Night
Orlando,FL,unknown,28.51924669797446,-81.35409597886726,7200.0,2013,12,Night
Mount Pleasant,SC,light,,,450.0,2013,12,Night
Largo,FL,circle,27.901617291066263,-82.77851383285332,150.0,2013,12,Night
Sarasota,FL,light,27.31073444108761,-82.4904402567977,60.0,2013,12,Night
Pinellas park,FL,light,27.845455248618823,-82.7141933701656,900.0,2013,12,Night
Ashburn,VA,fireball,39.02274220099852,-77.52534743064919,600.0,2012,12,Night
Orlando,FL,light,28.51924669797446,-81.35409597886726,60.0,2013,12,Night
Petal,MS,light,31.32490000000002,-89.17699999999999,720.0,2013,12,Day
Chesterfield,VA,oval,37.375834640522825,-77.61717058823527,,2013,12,Night
Moncks Corner,SC,light,33.11799999999997,-80.03840000000012,60.0,2013,12,Night
Bush,LA,light,30.6015,-89.9627,360.0,2013,12,Night
Cartersville,GA,light,34.18001249999993,-84.79490937499993,300.0,2013,12,Night
Dearing,GA,fireball,33.3901,-82.3835,210.0,2013,12,Night
Grovetown,GA,light,33.46210000000005,-82.22199999999994,1200.0,2013,12,Night
Acworth,GA,fireball,34.05107468354444,-84.67985569620211,180.0,2013,12,Night
Port Charlotte,FL,other,26.98100661157025,-82.11690661157034,1800.0,2013,12,Night
Princeton,WV,circle,37.39100000000003,-81.0417000000001,180.0,2013,12,Night
Largo,FL,sphere,27.901617291066263,-82.77851383285332,1.0,2013,12,Night
Palm Harbor,FL,light,28.087990092879284,-82.73884458204354,30.0,2013,12,Night
St. Petersburg,FL,fireball,27.79451493256266,-82.67515963391195,60.0,2013,12,Night
Bushnell,FL,light,28.6833,-82.1646,5.0,2013,12,Night
Palm Harbor,FL,light,28.087990092879284,-82.73884458204354,15.0,2013,12,Night
Naples,FL,light,26.19318196994997,-81.73703021702818,13.5,2013,12,Night
Saint Augustine,FL,triangle,29.879031299734795,-81.36659177718839,5.0,2013,12,Night
West Palm Beach,FL,circle,26.70504529494388,-80.13514009831465,30.0,2013,12,Night
Floral City,FL,cigar,,,20.0,2013,12,Day
Wellington,FL,light,,,900.0,2013,12,Night
Miami,FL,light,25.77414271350745,-80.28951850011364,300.0,2013,12,Night
Austin,TX,light,30.308469443732346,-97.76011171494544,600.0,2013,12,Day
Venice,FL,fireball,27.065818999999845,-82.39104000000012,300.0,2013,12,Night
Fort Worth,TX,light,32.75736600322754,-97.34710441097356,,2013,12,Night
Titusville,FL,circle,28.54022121212127,-80.85438636363631,300.0,2013,12,Night
Dripping Springs,TX,cigar,30.2257,-98.1268,480.0,2013,12,Day
Lake Worth,FL,fireball,26.60020571428564,-80.12513920634922,60.0,2013,12,Night
Lake Worth,FL,fireball,26.60020571428564,-80.12513920634922,180.0,2013,12,Night
Clermont,FL,circle,28.517248275862137,-81.78506551724108,300.0,2013,12,Night
Port Charlotte,FL,formation,26.98100661157025,-82.11690661157034,15.0,2013,12,Night
Valley Head,WV,light,38.5368,-80.0059,1200.0,2013,12,Night
Fayetteville,NC,unknown,35.03683522123899,-78.92246247787618,60.0,2013,12,Night
Corner,AL,circle,,,,2013,12,Night
Palm Springs,FL,circle,,,,2013,12,Night
Ocoee,FL,light,28.57040000000003,-81.52980000000007,17.5,2013,12,Day
Morrisville,NC,formation,35.86009999999995,-78.83259999999987,60.0,2013,12,Night
Aventura,FL,light,,,240.0,2013,12,Night
Leland,NC,changing,34.24319999999992,-78.09959999999978,5.0,2013,12,Night
Jacksonville,FL,flash,30.266904680970416,-81.61637283365769,10.0,2013,12,Day
McMinnville,TN,unknown,35.652499999999975,-85.72839999999998,30.0,2013,12,Night
Brunswick,NC,egg,,,5.0,2013,12,Day
Burke,VA,triangle,38.78510000000005,-77.28660000000005,300.0,2013,12,Day
Port Richey,FL,unknown,28.30183557046984,-82.7053919463087,120.0,2013,12,Day
Miami,FL,cylinder,25.77414271350745,-80.28951850011364,300.0,2013,12,Night
Seminole,FL,light,27.84632195121951,-82.78800243902425,,2013,12,Night
Cadiz,KY,other,36.80560000000001,-87.83369999999998,,2013,12,Night
Port Charlotte,FL,circle,26.98100661157025,-82.11690661157034,17.5,2013,12,Night
The Colony,TX,circle,33.073499999999974,-96.90320000000013,60.0,2013,12,Night
Unionville,TN,cone,35.6107,-86.584,240.0,2013,12,Night
Panama City Beach,FL,changing,30.289213333333297,-85.81383666666665,60.0,2013,12,Night
Port Charlotte,FL,disk,26.98100661157025,-82.11690661157034,300.0,2013,12,Night
Seminole,FL,changing,27.84632195121951,-82.78800243902425,540.0,2013,12,Night
Woodstock,GA,fireball,34.12187164179115,-84.49419850746298,10.0,2013,12,Night
Perry,GA,fireball,32.43550000000003,-83.7267000000001,1.0,2013,12,Night
Largo,FL,circle,27.901617291066263,-82.77851383285332,300.0,2013,12,Night
Coral Springs,FL,unknown,,,150.0,2013,12,Night
Virginia,VA,circle,,,180.0,2013,12,Night
Alexandria,VA,fireball,38.798958214042806,-77.09513265167011,600.0,2013,12,Day
Charleston,SC,other,32.8038872316379,-79.96885661016988,60.0,2013,12,Night
Boca Raton,FL,fireball,26.368061827957263,-80.13787724014395,120.0,2013,12,Night
New Port Richey,FL,fireball,28.24270049382709,-82.67723901234524,120.0,2013,12,Day
Miami,FL,fireball,25.77414271350745,-80.28951850011364,60.0,2013,12,Night
Waynesboro,GA,fireball,33.089199999999984,-81.98610000000004,6000.0,2013,12,Night
Myrtle Beach,SC,light,33.68314999999984,-78.9395390957444,300.0,2013,12,Night
Belmont,NC,light,35.217799999999976,-81.03940000000009,900.0,2013,12,Night
Bonita Springs,FL,light,26.36820511182117,-81.78585399361074,12.5,2013,12,Night
Jacksonville,FL,flash,30.266904680970416,-81.61637283365769,2.0,2013,12,Night
Bowling Green,KY,rectangle,37.03270772946864,-86.41964444444426,60.0,2013,12,Night
Trinity,FL,light,,,,2013,12,Night
Myrtle Beach,SC,light,33.68314999999984,-78.9395390957444,15.0,2013,12,Night
Fayetteville,NC,circle,35.03683522123899,-78.92246247787618,50.0,2013,12,Night
Tampa,FL,circle,28.00681435810791,-82.47646101351302,150.0,2013,12,Day
North Myrtle Beach,SC,flash,33.83166000000003,-78.65013000000003,750.0,2013,12,Night
Shallotte,NC,flash,33.97635384615381,-78.39591538461539,5.0,2013,12,Night
Satellite Beach,FL,fireball,28.17370000000004,-80.59970000000003,900.0,2013,12,Night
Sweeny,TX,sphere,29.071800000000007,-95.75520000000004,2700.0,2013,12,Night
Homosassa,FL,light,28.75405161290322,-82.52686129032251,900.0,2013,12,Night
Lakewood Ranch,FL,triangle,,,210.0,2013,12,Night
North Port,FL,formation,27.07620952380954,-82.22327976190468,120.0,2013,12,Night
Benton,KY,cigar,36.85959999999997,-88.33669999999991,30.0,2013,12,Night
Tampa,FL,light,28.00681435810791,-82.47646101351302,120.0,2013,12,Night
San Antonio,TX,disk,29.48886591714061,-98.47524044355946,20.0,2013,12,Day
Palacios,TX,cylinder,28.7575,-96.2523,300.0,2013,12,Night
Kernersville,NC,light,36.11755735294117,-80.07612941176471,60.0,2013,12,Night
Mobile,AL,other,30.68156511397419,-88.13669395441067,120.0,2013,12,Night
Evans,GA,circle,33.55779999999992,-82.16480000000004,4.0,2013,12,Day
Keaton Beach,FL,flash,,,2.0,2013,12,Night
Spring Hill,TN,light,35.7174,-86.89260000000007,3600.0,2013,12,Night
Abbeville,LA,light,29.91359807692307,-92.20952499999996,1500.0,2013,12,Night
Grovetown,GA,unknown,33.46210000000005,-82.22199999999994,90.0,2013,12,Night
Corpus Christi,TX,sphere,27.71750016181213,-97.40525129449864,60.0,2013,12,Night
Jacksonville,FL,fireball,30.266904680970416,-81.61637283365769,600.0,2013,12,Night
North Palm Beach,FL,fireball,26.854199999999995,-80.05470000000003,120.0,2013,12,Night
Yorktown,VA,fireball,37.1558976190477,-76.46353809523823,240.0,2013,12,Night
Lillington,NC,circle,35.38739999999999,-78.8686,3.0,2013,12,Night
Orlando,FL,fireball,28.51924669797446,-81.35409597886726,360.0,2013,12,Night
Louisville,KY,fireball,38.211214467651466,-85.68918456444241,180.0,2013,12,Night
Austin,TX,fireball,30.308469443732346,-97.76011171494544,60.0,2013,12,Night
Saint Cloud,FL,fireball,28.22573378378376,-81.2370689189189,60.0,2013,12,Night
Metairie,LA,light,29.99880563380283,-90.17318112676044,300.0,2013,12,Night
Gainesville,FL,light,29.64608679245284,-82.3810761006288,90.0,2013,12,Night
Kissimme,FL,circle,,,600.0,2013,12,Night
Richmond,VA,light,37.55860753863546,-77.50798002261593,5.0,2013,12,Night
Lehigh Acres,FL,fireball,26.620117460317413,-81.64091587301577,900.0,2013,12,Night
Lehigh,FL,fireball,,,900.0,2013,12,Night
Charlotte,NC,changing,35.205800840014845,-80.82639156166395,60.0,2013,12,Night
Glen St. Mary,FL,fireball,,,300.0,2013,12,Night
Pompano Beach,FL,changing,26.259570237239487,-80.18338936017291,360.0,2013,12,Night
Lakeland,FL,light,28.04722715328456,-81.95884978102269,420.0,2013,12,Night
Lake Worth,FL,formation,26.60020571428564,-80.12513920634922,270.0,2013,12,Night
Trinity,FL,fireball,,,60.0,2013,12,Night
Royal Palm Beach,FL,teardrop,26.7084,-80.2306,180.0,2013,12,Night
Sebastian,FL,fireball,27.80384216867468,-80.49428072289156,180.0,2013,12,Night
Lehigh Acres,FL,fireball,26.620117460317413,-81.64091587301577,60.0,2013,12,Night
Arlington,TX,sphere,32.70709736842088,-97.12387052631549,2250.0,2013,12,Night
Captiva,FL,fireball,,,20.0,2013,12,Night
Raleigh,NC,light,35.81800885085544,-78.64441853300764,1200.0,2013,12,Night
Jacksonville,FL,cigar,30.266904680970416,-81.61637283365769,600.0,2013,12,Day
Mobile,AL,sphere,30.68156511397419,-88.13669395441067,,2013,12,Day
Midlothian,VA,diamond,37.47343470873784,-77.66057111650456,1200.0,2013,12,Night
Lakeland,FL,circle,28.04722715328456,-81.95884978102269,600.0,2013,12,Night
Summerville,SC,circle,33.031396402877775,-80.1881230215825,120.0,2013,12,Night
Daphne,AL,unknown,30.60609999999998,-87.8580000000001,3600.0,2013,12,Night
Columbia,SC,other,34.02910563770805,-80.99284038816866,300.0,2013,12,Night
Gainesville,FL,fireball,29.64608679245284,-82.3810761006288,,2012,12,Night
Memphis,TN,unknown,35.12547266265736,-89.9269248223065,360.0,2013,12,Day
Hurtsboro,AL,triangle,,,210.0,2013,12,Night
Eustis,FL,triangle,28.876913333333288,-81.65287999999993,300.0,2014,12,Night
Arlington,TX,unknown,32.70709736842088,-97.12387052631549,2700.0,2014,12,Night
Virginia Beach,VA,light,36.83730134271098,-76.06194814577877,10.0,2014,12,Day
Indian Trail,NC,sphere,35.11369999999998,-80.60829999999991,5.0,2014,12,Night
Springdale,AR,fireball,36.17956956521738,-94.14116847826098,60.0,2014,12,Night
Powhatan,VA,flash,37.55330000000002,-77.93450000000001,5.0,2014,12,Night
Murpheesboro,TN,fireball,,,12.5,2014,12,Night
Brooksville,FL,triangle,28.55954520547945,-82.43392876712333,10.0,2014,12,Night
Front Royal,VA,fireball,38.92259999999999,-78.13370000000009,60.0,2014,12,Night
Meansville,GA,formation,33.0181,-84.3152,300.0,2014,12,Night
Kannapolis,NC,triangle,35.4953666666667,-80.6316087719298,210.0,2014,12,Night
Bunn,NC,circle,,,3.0,2014,12,Night
Tampa,FL,light,28.00681435810791,-82.47646101351302,3600.0,2014,12,Night
Cartersville,GA,unknown,34.18001249999993,-84.79490937499993,270.0,2014,12,Day
Cedar Park,TX,unknown,30.49983506493505,-97.80827857142845,60.0,2014,12,Night
Columbia,SC,fireball,34.02910563770805,-80.99284038816866,180.0,2014,12,Day
Abilene,TX,formation,32.39435138461548,-99.7900440000002,360.0,2012,12,Night
Kiambu,KY,light,,,1200.0,2014,12,Night
Pickens,SC,sphere,34.88350000000001,-82.7074,10800.0,2014,12,Night
Simpsonville,SC,fireball,34.743073664122214,-82.2392438931297,7200.0,2014,12,Day
Dallas,TX,triangle,32.835168077433146,-96.80811785917246,6.0,2013,12,Night
Spring,TX,sphere,30.10690917030536,-95.47395807860404,,2013,12,Night
Merigold,MS,light,33.8295,-90.7412,600.0,2014,12,Night
Lenoir City,TN,triangle,35.82429295774651,-84.27862394366188,300.0,2014,12,Night
Memphis,TN,light,35.12547266265736,-89.9269248223065,5400.0,2014,12,Night
Houston,TX,sphere,29.777493696652662,-95.4512204483613,900.0,2014,12,Night
Lafayette,LA,fireball,30.190793509127705,-92.04514239350922,120.0,2014,12,Night
San Antonio,TX,circle,29.48886591714061,-98.47524044355946,300.0,2014,12,Night
Spring Hill,TN,circle,35.7174,-86.89260000000007,180.0,2014,12,Night
Spring Hill,TN,circle,35.7174,-86.89260000000007,180.0,2014,12,Night
Nashville,GA,unknown,31.2107,-83.2106,300.0,2014,12,Night
Coral Springs,FL,formation,,,120.0,2014,12,Night
Baytown,TX,other,29.778978466076698,-94.96099469026598,180.0,2014,12,Night
Hialeah,FL,triangle,25.893811055276416,-80.31887708542773,120.0,2014,12,Night
Virginia Beach,VA,fireball,36.83730134271098,-76.06194814577877,180.0,2014,12,Night
Davie,FL,light,26.0629,-80.2331,300.0,2014,12,Night
Saint Petersburg Beach,FL,oval,,,180.0,2014,12,Night
Orangburg,SC,formation,,,300.0,2014,12,Night
Huntington,WV,chevron,38.38493857677904,-82.4114052434457,300.0,2014,12,Night
Leland,NC,light,34.24319999999992,-78.09959999999978,5.0,2014,12,Night
Chelsea,AL,triangle,33.3143,-86.67110000000001,300.0,2014,12,Night
Villa Rica,GA,cross,33.71049999999998,-84.91119999999988,,2014,12,Night
Johnson City,TN,unknown,36.3237533442089,-82.35638939641112,60.0,2014,12,Night
Pearland,TX,sphere,29.54702225130907,-95.30299397905716,3.0,2014,12,Night
Fayetteville,NC,fireball,35.03683522123899,-78.92246247787618,10.0,2014,12,Night
Raleigh,NC,light,35.81800885085544,-78.64441853300764,,2014,12,Night
Reddinton Beach,FL,fireball,,,600.0,2014,12,Night
Colleyville,TX,other,32.89180000000003,-97.14670000000004,,2014,12,Day
Sarasota,FL,fireball,27.31073444108761,-82.4904402567977,,2014,12,Night
Sanford,FL,circle,28.81493000000006,-81.33946476190496,600.0,2014,12,Night
Salt Springs,FL,circle,,,450.0,2014,12,Night
St. Petersburg,FL,oval,27.79451493256266,-82.67515963391195,90.0,2014,12,Night
Swannanoa,NC,light,35.62709999999999,-82.39360000000002,240.0,2014,12,Night
Calhoun,GA,circle,34.49497297297296,-84.91442702702687,1200.0,2014,12,Night
Clarksville,TN,fireball,36.51515837104077,-87.36103416289579,600.0,2014,12,Night
Fayetteville,NC,light,35.03683522123899,-78.92246247787618,900.0,2014,12,Night
Jacksonville,FL,fireball,30.266904680970416,-81.61637283365769,240.0,2014,12,Night
Rolesville,NC,circle,35.9196,-78.45849999999999,600.0,2014,12,Night
Tampa,FL,triangle,28.00681435810791,-82.47646101351302,150.0,2014,12,Night
Spring Hill,FL,fireball,28.469209062499964,-82.53924249999976,,2014,12,Night
Onancock,VA,light,37.73530000000002,-75.76639999999999,2.5,2014,12,Night
Boynton Beach,FL,light,26.524479610194827,-80.10637856072006,60.0,2014,12,Night
Smyrna,GA,disk,33.86214054054068,-84.50484729729759,900.0,2014,12,Night
Saint Johns River,FL,light,,,360.0,2014,12,Night
Mountain City,TN,light,36.471300000000014,-81.81440000000002,300.0,2014,12,Night
Hoover,AL,light,,,900.0,2014,12,Day
Burlington,NC,light,36.05402121212131,-79.47029090909089,2700.0,2014,12,Night
Waco,TX,light,31.5735975077882,-97.13584859813108,,2014,12,Night
Port Saint Lucie,FL,oval,27.28568630136981,-80.36344363992168,120.0,2014,12,Day
Metairie,LA,light,29.99880563380283,-90.17318112676044,60.0,2014,12,Day
Lancaster Mill,SC,sphere,,,120.0,2014,12,Night
Cocoa Beach,FL,light,28.31667755102041,-80.6132306122449,60.0,2014,12,Day
Luxora,AR,teardrop,,,,2014,12,Night
Inman,SC,cigar,35.04839999999998,-82.08520000000011,60.0,2014,12,Night
Palm Coast,FL,unknown,29.540925000000044,-81.20838511904773,120.0,2014,12,Night
Decatur,GA,light,33.744850632911216,-84.26857784810052,9.0,2014,12,Night
Cape Coral,FL,unknown,26.6164216981131,-81.97006591981146,780.0,2014,12,Night
Laurel,MS,circle,31.6965088235294,-89.11289705882366,120.0,2014,12,Day
Winter Springs,FL,flash,28.6812,-81.27629999999999,300.0,2014,12,Night
Winter Springs,FL,fireball,28.6812,-81.27629999999999,300.0,2014,12,Night
McGehee,AR,cylinder,33.6284,-91.3569,,2014,12,Night
Sebring,FL,unknown,27.48583177570095,-81.46044672897182,,2014,12,Night
Winston-Salem,NC,sphere,36.09356861702117,-80.27833537234031,900.0,2014,12,Night
Myrtle Beach,SC,teardrop,33.68314999999984,-78.9395390957444,300.0,2014,12,Night
South Abbeville,LA,light,,,60.0,2014,12,Night
Ocala,FL,unknown,29.15317001620753,-82.11931701782794,450.0,2014,12,Night
Vero  Beach,FL,sphere,,,40.0,2014,12,Night
Casselberry,FL,light,28.660072268907506,-81.31671932773105,30.0,2014,12,Night
Fort Myers,FL,circle,26.58139708890648,-81.84065302911138,180.0,2014,12,Night
Canton,MS,changing,32.62519999999998,-90.02289999999999,3600.0,2014,12,Night
Plantation,FL,light,26.1342,-80.2318,2.0,2014,12,Night
San Antonio,TX,triangle,29.48886591714061,-98.47524044355946,1800.0,2014,12,Night
Holiday,FL,fireball,28.196836708860737,-82.75373291139249,,2014,12,Night
Orangeburg,SC,circle,33.507314285714266,-80.86238961038956,60.0,2014,12,Night
Mobile,AL,other,30.68156511397419,-88.13669395441067,3600.0,2014,12,Night
Lake Worth,FL,triangle,26.60020571428564,-80.12513920634922,120.0,2014,12,Night
Indiatlantic,FL,light,,,60.0,2014,12,Night
Evans,GA,formation,33.55779999999992,-82.16480000000004,900.0,2014,12,Night
Manassas,VA,formation,38.74820707831358,-77.53053840361497,300.0,2014,12,Night
Chesapeake,VA,light,36.75204769539075,-76.2818308617235,1800.0,2014,12,Night
Port Saint Lucie,FL,disk,27.28568630136981,-80.36344363992168,3.0,2014,12,Night
Altamonte Springs,FL,flash,28.66467850162859,-81.40282866449502,,2014,12,Night
Charlotte,NC,other,35.205800840014845,-80.82639156166395,3600.0,2014,12,Night
Ringgold,GA,light,34.89139999999998,-85.12070000000013,5.0,2014,12,Night
Augusta,GA,triangle,33.458483273381354,-82.04117769784212,1800.0,2014,12,Night
Raleigh,NC,light,35.81800885085544,-78.64441853300764,60.0,2014,12,Night
Port Saint Lucie,FL,changing,27.28568630136981,-80.36344363992168,180.0,2014,12,Day
Orlando,FL,cigar,28.51924669797446,-81.35409597886726,600.0,2014,12,Night
Harlingen,TX,light,26.23264361702118,-97.69654095744696,20.0,2014,12,Night
Conway,SC,formation,33.89340405405407,-78.96144391891886,10.0,2014,12,Night
Longwood,FL,chevron,28.71875294117648,-81.37619869281045,300.0,2014,12,Night
Accomac,VA,formation,37.7022,-75.6592,300.0,2014,12,Night
College Station,TX,sphere,30.59415382978701,-96.3046746808512,5.0,2014,12,Night
Spring,TX,chevron,30.10690917030536,-95.47395807860404,1.5,2014,12,Night
Fort Mill,SC,triangle,35.02344974093267,-80.93442020725384,,2014,12,Night
Falls Church,VA,rectangle,38.87033365758756,-77.1809210116731,120.0,2014,12,Night
Attalla,AL,light,34.090500000000006,-86.04420000000002,12000.0,2014,12,Night
Naples,FL,light,26.19318196994997,-81.73703021702818,180.0,2014,12,Night
Portsmouth,VA,oval,36.83548986175126,-76.35074423963137,180.0,2014,12,Day
LaBelle,FL,triangle,26.834675,-81.44312500000001,7.5,2014,12,Night
Hogansville,GA,changing,33.18460000000002,-84.9076,900.0,2014,12,Night
Owensboro,KY,fireball,37.76107061855678,-87.15569742268023,750.0,2014,12,Day
Porter,TX,light,30.109399999999933,-95.25189999999984,120.0,2014,12,Night
Villa Rica,GA,cross,33.71049999999998,-84.91119999999988,1800.0,2014,12,Night
Auburn,AL,oval,32.55663031914896,-85.52960531914874,,2014,12,Night
Mount Juliet,TN,light,36.1721481481482,-86.49074814814831,,2014,12,Night
Morgantown,WV,other,39.618046273291775,-79.95917639751558,15.0,2014,12,Night
Meadowview,VA,triangle,,,60.0,2014,12,Night
Sulphur,LA,circle,30.23088043478255,-93.41693695652168,480.0,2014,12,Night
Rentz,GA,triangle,32.3458,-82.9638,540.0,2014,12,Night
Garner,NC,light,35.646099999999954,-78.5791000000002,720.0,2014,12,Night
Williamsburg,VA,egg,37.30581090047404,-76.73795308056884,600.0,2014,12,Night
Birmingham,AL,fireball,33.48091579651916,-86.77946934404252,1200.0,2014,12,Day
Franklin,NC,disk,35.18325652173913,-83.42856086956536,300.0,2014,12,Night
Kenner,LA,chevron,30.01750267857148,-90.25106428571436,60.0,2014,12,Night
Spotsylvania,VA,unknown,38.19920215053767,-77.63315268817209,60.0,2014,12,Night
Cape Coral,FL,cigar,26.6164216981131,-81.97006591981146,1800.0,2013,12,Night
El Paso,TX,unknown,31.79232818352071,-106.3748488764045,,2014,12,Night
Easley,SC,light,34.81419219858158,-82.57285602836882,,2015,12,Night
Arlington,TX,cigar,32.70709736842088,-97.12387052631549,,2015,12,Night
Griffin,GA,oval,33.24886917808215,-84.24921712328786,,2015,12,Night
Angier,NC,light,35.48319999999998,-78.67979999999991,420.0,2015,12,Night
Simpsonville,SC,sphere,34.743073664122214,-82.2392438931297,8.0,2014,12,Night
Fayetteville,AR,sphere,36.047871851851895,-94.0445377777781,,2013,12,Day
Hattiesburg,MS,triangle,31.295049315068447,-89.36069520547987,600.0,2014,12,Night
Troutman,NC,diamond,35.6822,-80.86630000000001,600.0,2015,12,Night
Thornton,KY,triangle,,,60.0,2015,12,Night
Sabine Pass,TX,light,,,1200.0,2005,12,Night
Matanzas Inlet,FL,other,,,120.0,2015,12,Day
Durham,NC,disk,35.98046262866154,-78.89813626286602,120.0,2015,12,Night
Sanford,FL,circle,28.81493000000006,-81.33946476190496,1.5,2015,12,Day
Four Oaks,NC,light,35.40589999999998,-78.37390000000003,1200.0,2015,12,Night
Dunedin,FL,triangle,28.028590588235325,-82.76900117647061,,2015,12,Night
Jacksonville,FL,rectangle,30.266904680970416,-81.61637283365769,810.0,2015,12,Night
Troutman,NC,light,35.6822,-80.86630000000001,120.0,2015,12,Night
Leesville,SC,triangle,33.889199999999995,-81.43409999999996,1800.0,2015,12,Night
Titusville,FL,light,28.54022121212127,-80.85438636363631,300.0,2015,12,Night
Port Isabel,TX,cylinder,26.09680000000001,-97.31680000000004,60.0,2015,12,Day
Simpsonville,SC,circle,34.743073664122214,-82.2392438931297,120.0,2015,12,Day
Grafton,WV,light,39.35850000000002,-79.99839999999996,300.0,2015,12,Night
Palm Bay,FL,changing,27.99618064516127,-80.65104569892473,,2015,12,Night
Tomahawk,WV,triangle,,,30.0,2015,12,Day
Gainesville,FL,triangle,29.64608679245284,-82.3810761006288,,2015,12,Night
Weaverville,NC,light,35.72879999999999,-82.51379999999995,300.0,2015,12,Night
Orlando,FL,formation,28.51924669797446,-81.35409597886726,900.0,2015,12,Night
Palm Beach Gardens,FL,triangle,26.83890994318186,-80.16463636363615,5.0,2015,12,Night
Cape Coral,FL,light,26.6164216981131,-81.97006591981146,900.0,2015,12,Night
Hinesville,GA,circle,31.858099999999983,-81.58539999999995,600.0,2015,12,Night
Cape Coral,FL,other,26.6164216981131,-81.97006591981146,35.0,2015,12,Night
Campobello,SC,triangle,35.11419999999999,-82.12870000000001,300.0,2015,12,Night
Sarasota,FL,fireball,27.31073444108761,-82.4904402567977,180.0,2015,12,Night
Baton Rouge,LA,formation,30.42736711319548,-91.0869557267233,180.0,2015,12,Night
Owensboro,KY,triangle,37.76107061855678,-87.15569742268023,30.0,2015,12,Night
Jacksonville,FL,sphere,30.266904680970416,-81.61637283365769,120.0,2015,12,Night
Maryville,TN,cigar,35.70236415094338,-83.98648396226402,,2015,12,Night
Hilldale,WV,rectangle,,,900.0,2015,12,Day
Cullman,AL,light,34.16638041237117,-86.77162783505163,,2015,12,Night
Brandon,FL,oval,27.91174344023321,-82.30077871720125,1800.0,2015,12,Night
Harpersville,AL,oval,33.3368,-86.4548,300.0,2015,12,Night
Miami,FL,sphere,25.77414271350745,-80.28951850011364,1800.0,2015,12,Night
Bessemer City,NC,changing,35.32139999999999,-81.2973,20.0,2015,12,Day
Southwest UK,AL,triangle,,,2400.0,2015,12,Night
Gadsden,AL,fireball,34.02136217948719,-85.92212243589752,300.0,2015,12,Night
Bay City,TX,circle,28.94117142857141,-95.79665102040816,300.0,2015,12,Night
Moncks Corner,SC,fireball,33.11799999999997,-80.03840000000012,300.0,2015,12,Night
Port Saint Lucie,FL,sphere,27.28568630136981,-80.36344363992168,480.0,2015,12,Night
Bluff City,TN,triangle,36.45540000000002,-82.20879999999994,1200.0,2015,12,Night
Madison,MS,sphere,32.51636754966889,-90.13641788079435,120.0,2015,12,Night
Cumming,GA,fireball,34.17941111111121,-84.14029453860653,2.0,2015,12,Night
New Port Richey,FL,fireball,28.24270049382709,-82.67723901234524,90.0,2015,12,Night
Richmond,VA,triangle,37.55860753863546,-77.50798002261593,30.0,2015,12,Night
Mobile,AL,light,30.68156511397419,-88.13669395441067,,2015,12,Night
Victoria,TX,cigar,28.85364228571429,-96.99435771428531,240.0,2015,12,Night
Arabi,GA,other,31.8491,-83.7336,6.0,2015,12,Night
Madison,MS,sphere,32.51636754966889,-90.13641788079435,420.0,2015,12,Night
Madison,MS,disk,32.51636754966889,-90.13641788079435,2400.0,2015,12,Night
Baton Rouge,LA,circle,30.42736711319548,-91.0869557267233,60.0,2015,12,Night
Pope,MS,triangle,34.2151,-89.9479,600.0,2015,12,Night
Linden,VA,fireball,38.9188,-78.0399,300.0,2015,12,Night
Pittsboro,NC,light,35.751899999999985,-79.22479999999997,300.0,2015,12,Night
Marietta,SC,triangle,35.0654,-82.5489,,2015,12,Night
Panama City,FL,light,30.207729949238427,-85.62376675126933,10.0,2015,12,Night
Philadelphia,MS,other,32.80560000000002,-89.10729999999995,120.0,2015,12,Night
Ponte Vedra,FL,triangle,30.22749999999997,-81.38009999999998,4800.0,2015,12,Day
Saint Augustine,FL,light,29.879031299734795,-81.36659177718839,10.0,2015,12,Night
Trumann,AR,triangle,35.57449999999998,-90.5215,4.0,2015,12,Night
Elizabeth City,NC,fireball,36.31627741935485,-76.27461612903227,2100.0,2015,12,Night
St. Petersburg,FL,unknown,27.79451493256266,-82.67515963391195,1200.0,2015,12,Night
Whitesburg,GA,other,33.5156,-84.9052,1800.0,2015,12,Night
Ponte Vedra Beach,FL,sphere,30.10861724137932,-81.35468965517224,900.0,2015,12,Night
Bentonville,AR,light,36.35266857142855,-94.24044571428566,300.0,2015,12,Night
Nashville,TN,light,36.131700042408816,-86.77681348600586,1050.0,2015,12,Night
Jacksonville,FL,unknown,30.266904680970416,-81.61637283365769,900.0,2015,12,Night
Four Oaks,NC,light,35.40589999999998,-78.37390000000003,1800.0,2015,12,Night
Orlando,FL,disk,28.51924669797446,-81.35409597886726,10.0,2015,12,Day
Inman,SC,triangle,35.04839999999998,-82.08520000000011,300.0,2015,12,Night
Buxton,NC,triangle,35.2677,-75.5424,900.0,2015,12,Night
Kissimmee,FL,circle,28.255034672618937,-81.42949196428496,600.0,2015,12,Night
Fayetteville,NC,light,35.03683522123899,-78.92246247787618,60.0,2015,12,Night
Niceville,FL,sphere,30.5074,-86.49135999999994,30.0,2015,12,Night
Tampa,FL,light,28.00681435810791,-82.47646101351302,2700.0,2015,12,Night
Wilmington,NC,light,34.238374952198605,-77.87846768642464,60.0,2015,12,Night
Mooresville,NC,light,35.574077033492856,-80.86029617224865,600.0,2015,12,Night
Mooresville,NC,light,35.574077033492856,-80.86029617224865,600.0,2015,12,Night
Trenton,FL,unknown,29.64389999999999,-82.73700000000001,,2015,12,Night
Lenoir City,TN,cylinder,35.82429295774651,-84.27862394366188,10800.0,2015,12,Day
Jasper,GA,fireball,34.46099999999997,-84.4278000000001,4.0,2015,12,Night
Russell Springs,KY,light,37.0707,-85.04790000000001,300.0,2015,12,Night
Lynnville,TN,circle,35.3771,-87.047,2250.0,2015,12,Night
Dothan,AL,fireball,31.20767767441865,-85.42901023255828,40.0,2015,12,Night
Franklin,TN,flash,35.91850835322228,-86.88540525059699,3600.0,2015,12,Night
Hattiesburg,MS,oval,31.295049315068447,-89.36069520547987,5.0,2015,12,Night
Loxahatchee,FL,light,,,3600.0,2015,12,Night
Oakland,KY,light,,,900.0,2015,12,Night
Raleigh,NC,formation,35.81800885085544,-78.64441853300764,210.0,2015,12,Night
Port Charlotte,FL,oval,26.98100661157025,-82.11690661157034,300.0,2015,12,Night
Pineville,LA,circle,31.290949999999945,-92.39147250000018,,2015,12,Night
New Boston,TX,light,33.45929999999999,-94.43010000000002,45.0,2015,12,Night
Fairfax,VA,circle,38.84920832049281,-77.31409306625612,18000.0,2015,12,Night
Gainesville,VA,circle,38.81750000000008,-77.6308000000001,2.0,2015,12,Night
Wilmington,NC,unknown,34.238374952198605,-77.87846768642464,,2015,12,Night
Smithville,TN,teardrop,35.929300000000005,-85.77939999999995,420.0,2015,12,Night
Deltona,FL,light,28.892171511628,-81.22035,480.0,2015,12,Night
Whitesburg,KY,triangle,37.1338,-82.87469999999999,120.0,2015,12,Night
Bowling Green,KY,flash,37.03270772946864,-86.41964444444426,30.0,2015,12,Night
Russellville,AR,circle,35.28934141414137,-93.09225151515164,30.0,2015,12,Night
Huntington,WV,triangle,38.38493857677904,-82.4114052434457,30.0,2015,12,Night
King George,VA,light,38.27329999999997,-77.17389999999986,3600.0,2015,12,Night
Kennesaw,GA,other,34.01628083989519,-84.61814120734901,2.5,2015,12,Day
Knoxville,TN,cylinder,35.96156134085192,-83.98011528822053,12.5,2015,12,Night
Vance,AL,light,33.218399999999995,-87.2287,120.0,2015,12,Night
Dunedin,FL,chevron,28.028590588235325,-82.76900117647061,,2015,12,Night
Tampa,FL,fireball,28.00681435810791,-82.47646101351302,300.0,2015,12,Night
Athens,AL,diamond,34.79423655913973,-87.0204129032258,180.0,2015,12,Night
Mount Ida,AR,sphere,34.572,-93.41200000000002,10.0,2015,12,Day
Holly Springs,NC,unknown,35.602199999999925,-78.8786,2700.0,2015,12,Night
Sparta,GA,circle,33.2661,-83.027,1800.0,2015,12,Night
Chesterfield,VA,triangle,37.375834640522825,-77.61717058823527,60.0,2015,12,Night
Copperas Cove,TX,diamond,31.2002,-97.99209999999997,3600.0,2015,12,Night
Goose Creek,SC,unknown,32.98779999999995,-80.00569999999983,450.0,2015,12,Night
Palmetto,FL,fireball,27.59220375000003,-82.50594000000008,60.0,2015,12,Night
Talbott,TN,flash,36.1466,-83.40049999999998,1500.0,2013,12,Night
Kingsland,GA,sphere,30.79850000000003,-81.72069999999995,900.0,2015,12,Night
Springdale,AR,light,36.17956956521738,-94.14116847826098,300.0,2005,12,Night
Montgomery,AL,circle,32.372222543949924,-86.2398247156157,60.0,2016,12,Night
Conway,SC,formation,33.89340405405407,-78.96144391891886,300.0,2016,12,Night
Portland,TN,light,36.58169999999997,-86.51639999999999,240.0,2016,12,Night
Snellville,GA,triangle,33.830933333333434,-84.02016666666687,,2016,12,Day
Raphine,VA,circle,37.9426,-79.2035,240.0,2016,12,Night
Reidsville,NC,light,36.33999999999999,-79.62880000000006,900.0,2016,12,Night
Morgantown,WV,light,39.618046273291775,-79.95917639751558,,2016,12,Night
Savannah,GA,rectangle,32.02970094086019,-81.13525336021517,1200.0,2011,12,Night
New Smyrna Beach,FL,circle,28.99172112676058,-80.99088169014094,,2016,12,Night
White Stone,VA,light,37.648500000000006,-76.3891,14400.0,2016,12,Night
Miami,FL,unknown,25.77414271350745,-80.28951850011364,300.0,2016,12,Day
Cleburne,TX,oval,32.34987083333336,-97.37565833333336,7200.0,2016,12,Night
Fredericksburg,VA,sphere,38.28988855325928,-77.48740445151074,180.0,2016,12,Day
Dillon,SC,chevron,34.4272,-79.3723,7200.0,2016,12,Night
Fredericksburg,VA,cylinder,38.28988855325928,-77.48740445151074,900.0,2016,12,Night
Suwanee,GA,changing,34.0514999999998,-84.0712999999997,,2016,12,Day
Norfolk,VA,rectangle,36.88938336106483,-76.26208236272848,,2016,12,Day
Dillon,SC,chevron,34.4272,-79.3723,14400.0,2016,12,Night
Huntsville,AL,formation,34.727967771639705,-86.62783879681086,900.0,2016,12,Day
San Antonio,TX,fireball,29.48886591714061,-98.47524044355946,600.0,2016,12,Night
Miss Point,MS,unknown,,,900.0,2016,12,Night
Spring Hill,FL,cylinder,28.469209062499964,-82.53924249999976,120.0,2016,12,Night
Myrtle Beach,SC,light,33.68314999999984,-78.9395390957444,,2016,12,Night
Columbia,SC,circle,34.02910563770805,-80.99284038816866,,2016,12,Night
Lutz,FL,formation,28.153275609756104,-82.48028585365846,20.0,2016,12,Night
Indialantic,FL,formation,28.10750000000001,-80.58030000000005,210.0,2016,12,Night
Ponte Vedra Beach,FL,oval,30.10861724137932,-81.35468965517224,,2016,12,Night
Satellite Beach,FL,circle,28.17370000000004,-80.59970000000003,7200.0,2016,12,Night
North Port,FL,sphere,27.07620952380954,-82.22327976190468,360.0,2016,12,Night
Aldie,VA,sphere,38.96360000000003,-77.61310000000002,2.0,2015,12,Night
Stephenson,VA,circle,39.2175,-78.08860000000001,90.0,2016,12,Day
Harrisonburg,LA,circle,,,,2016,12,Night
Hillsborough,NC,fireball,36.075499999999984,-79.07409999999996,5.0,2016,12,Night
Garland,TX,light,32.90899691833597,-96.62589799691877,1200.0,2016,12,Night
New Brockton,AL,light,,,2.0,2016,12,Night
Clearwater,FL,triangle,27.962023177842628,-82.75161705539335,13.0,2016,12,Night
Christiana,TN,other,35.69619999999998,-86.35989999999997,1200.0,2016,12,Night
Simpsonville,SC,other,34.743073664122214,-82.2392438931297,600.0,2016,12,Night
Marietta,GA,circle,33.961887459016594,-84.510213196721,60.0,2016,12,Night
Port Orange,FL,sphere,29.11762222222222,-81.00494074074058,900.0,2016,12,Night
Charlottesville,VA,unknown,38.04475955882345,-78.53657691176473,300.0,2016,12,Night
Palmetto,FL,unknown,27.59220375000003,-82.50594000000008,120.0,2016,12,Night
Sylvania,GA,sphere,32.738499999999995,-81.6142,120.0,2016,12,Night
Bivins,TX,circle,32.9339,-94.1479,21600.0,2016,12,Night
Corning,AR,cylinder,36.3906,-90.5642,12.5,2016,12,Night
Jackson,TN,cigar,35.64553919413915,-88.77842673992629,26.5,2016,12,Day
Texhoma,TX,circle,,,7200.0,2016,12,Night
Aiken,SC,light,33.5040955882353,-81.68538529411772,3.0,2016,12,Night
Millers Creek,NC,other,36.2657,-81.2768,300.0,2016,12,Day
Davie,FL,formation,26.0629,-80.2331,120.0,2016,12,Night
Patterson,LA,circle,29.70299999999999,-91.30479999999996,600.0,2016,12,Night
Delray Beach,FL,egg,26.45554743083016,-80.11589308300414,5.0,2016,12,Night
Hartselle,AL,triangle,34.443600000000046,-86.93690000000001,7200.0,2016,12,Night
Atlanta,GA,sphere,33.80870551584769,-84.38988231962149,900.0,2016,12,Day
Ozark,AL,unknown,31.46270000000002,-85.62669999999993,20.0,2016,12,Night
Panama City,FL,circle,30.207729949238427,-85.62376675126933,1800.0,2016,12,Night
Simpsonville,SC,disk,34.743073664122214,-82.2392438931297,600.0,2016,12,Night
Corbin,KY,flash,36.92068904109588,-84.16595479452063,1.0,2016,12,Night
Davie,FL,egg,26.0629,-80.2331,300.0,2016,12,Night
Johnson City,TN,triangle,36.3237533442089,-82.35638939641112,120.0,2016,12,Night
Dade City,FL,circle,28.356988888888893,-82.24646666666669,4.0,2016,12,Night
Hixson,TN,other,35.17050000000008,-85.20950000000022,120.0,2016,12,Night
Weston,FL,circle,,,300.0,2016,12,Day
Bayview,TX,cigar,,,3.0,2011,12,Day
Berryville,AR,formation,36.31150000000001,-93.55729999999996,5.0,2016,12,Night
Richardson,TX,triangle,32.96712791164686,-96.7163030120484,60.0,2016,12,Night
Conway,AR,chevron,35.05733591160227,-92.46246298342524,3600.0,2016,12,Night
Louisville,KY,unknown,38.211214467651466,-85.68918456444241,3600.0,2016,12,Night
Chester,VA,other,37.343151515151526,-77.408581818182,,2016,12,Night
Waynesboro,VA,sphere,38.11030000000023,-78.90729999999931,180.0,2016,12,Night
Arcade,GA,circle,42.3358,-8.5962,300.0,2016,12,Night
Sunrise,FL,circle,,,600.0,2016,12,Night
Lake Jackson,TX,unknown,29.032200000000053,-95.46990000000004,,2016,12,Day
Nairn,LA,formation,,,450.0,2016,12,Night
High Point,NC,other,35.974904029304035,-80.0163692307691,,2016,12,Night
Orlando,FL,fireball,28.51924669797446,-81.35409597886726,45.0,2016,12,Night
Riverdale,GA,cylinder,33.55106073619628,-84.41828711656453,900.0,2016,12,Night
Snellville,GA,circle,33.830933333333434,-84.02016666666687,6300.0,2016,12,Night
Saint Augustine,FL,circle,29.879031299734795,-81.36659177718839,180.0,2016,12,Night
Lancing,TN,diamond,36.1536,-84.6645,300.0,2016,12,Night
Fredericksburg,VA,circle,38.28988855325928,-77.48740445151074,120.0,2016,12,Night
Oldsmar,FL,sphere,28.04440000000003,-82.67950000000013,240.0,2016,12,Night
Pearland,TX,oval,29.54702225130907,-95.30299397905716,1.0,2016,12,Night
Hickory,NC,cone,35.73834549999995,-81.35073999999982,150.0,2016,12,Day
Arlington,VA,oval,38.87600858585876,-77.09626457431445,30.0,2016,12,Day
Virginia Beach,VA,cigar,36.83730134271098,-76.06194814577877,60.0,2016,12,Night
Farragut,TN,light,,,,2016,12,Night
Independence,LA,light,30.637200000000004,-90.5493,3600.0,2016,12,Day
Marietta,GA,light,33.961887459016594,-84.510213196721,7200.0,2016,12,Night
Jacksonville,FL,light,30.266904680970416,-81.61637283365769,2.0,2016,12,Night
Saint Johns,FL,chevron,,,60.0,2016,12,Night
Panama City,FL,circle,30.207729949238427,-85.62376675126933,,2016,12,Night
Fort Lauderdale,FL,circle,26.136914681280626,-80.21914075569774,3.0,2016,12,Night
Dabney,KY,triangle,,,80.0,2016,12,Night
North Chesterfield,VA,formation,,,20.0,2016,12,Night
Cumming,GA,light,34.17941111111121,-84.14029453860653,10.0,2016,12,Night
Dandridge,TN,light,36.02909999999998,-83.45470000000005,1500.0,2016,12,Night
Concord,NC,sphere,35.40326904109577,-80.62708465753448,480.0,2017,12,Night
Cordova,TN,disk,35.15760774647898,-89.76506760563377,2.5,2017,12,Day
Little Rock,AR,triangle,34.73753627684961,-92.36319236276871,180.0,2017,12,Night
Jacksonville,VA,other,,,600.0,2017,12,Night
Palm Bay,FL,sphere,27.99618064516127,-80.65104569892473,120.0,2017,12,Night
Okeechobee,FL,circle,27.25287968750002,-81.00743281249993,600.0,2017,12,Night
Crossett,AR,other,33.155999999999985,-92.0018,120.0,2017,12,Day
Naples,FL,fireball,26.19318196994997,-81.73703021702818,60.0,2017,12,Night
Douglas,GA,circle,31.516283132530106,-82.8506120481927,,2017,12,Night
Ellenton,FL,other,27.5361,-82.4978,300.0,2017,12,Night
Garland,TX,oval,32.90899691833597,-96.62589799691877,10.0,2017,12,Night
Canton,GA,circle,34.231579464285666,-84.44579494047582,120.0,2017,12,Night
Huntsville,AL,light,34.727967771639705,-86.62783879681086,4.0,2017,12,Night
North Miami Beach,FL,unknown,25.93319999999996,-80.16250000000021,120.0,2017,12,Night
Fleming Island,FL,triangle,,,600.0,2017,12,Night
Como,MS,other,34.4889,-89.6836,,2017,12,Night
Pilot,VA,rectangle,37.0452,-80.3106,600.0,2017,12,Night
Murfreesboro,TN,other,35.864548429752155,-86.40341190082613,300.0,2017,12,Night
Sulphur Springs,TX,formation,33.14722000000002,-95.59974999999991,600.0,2017,12,Day
Port Saint Lucie,FL,light,27.28568630136981,-80.36344363992168,120.0,2017,12,Night
Palm Bay,FL,other,27.99618064516127,-80.65104569892473,120.0,2017,12,Night
Gainesville,GA,triangle,34.313217712177035,-83.8058749077491,60.0,2017,12,Night
Davenport,FL,light,28.235650000000017,-81.66055327868852,180.0,2017,12,Night
Fort Myers,FL,cross,26.58139708890648,-81.84065302911138,360.0,2017,12,Night
